{
"type": "FeatureCollection",
"crs": { "type": "name", "properties": { "name": "urn:ogc:def:crs:OGC:1.3:CRS84" } },
"features": [
{ "type": "Feature", "properties": { "Name": "LI LI CHENG SUPERMARKET (PUNGGOL) PTE. LTD.", "Address": "Blk 273C PUNGGOL PLACE" }, "geometry": { "type": "Point", "coordinates": [ 103.901262393432916, 1.402303006159079 ] } },
{ "type": "Feature", "properties": { "Name": "SHENG SIONG SUPERMARKET PTE LTD", "Address": "Blk 11 UPPER BOON KENG ROAD" }, "geometry": { "type": "Point", "coordinates": [ 103.870914035562961, 1.314239370571344 ] } },
{ "type": "Feature", "properties": { "Name": "COLD STORAGE SINGAPORE (1983) PTE LTD", "Address": "Blk 683 HOUGANG AVENUE 8" }, "geometry": { "type": "Point", "coordinates": [ 103.88636553823109, 1.373321217284139 ] } },
{ "type": "Feature", "properties": { "Name": "COLD STORAGE SINGAPORE (1983) PTE LTD", "Address": "Blk 631 BEDOK RESERVOIR ROAD" }, "geometry": { "type": "Point", "coordinates": [ 103.914941831131586, 1.332958727231502 ] } },
{ "type": "Feature", "properties": { "Name": "YES SUPERMARKET PTE LTD", "Address": "Blk 201B TAMPINES STREET 21" }, "geometry": { "type": "Point", "coordinates": [ 103.953009921085894, 1.353453155922566 ] } },
{ "type": "Feature", "properties": { "Name": "SUZYAMEER FROZEN PTE. LTD.", "Address": "Blk 201D TAMPINES STREET 21" }, "geometry": { "type": "Point", "coordinates": [ 103.953586497750052, 1.352262312539641 ] } },
{ "type": "Feature", "properties": { "Name": "G8 MART PTE. LTD.", "Address": "Blk 421 ANG MO KIO AVENUE 10" }, "geometry": { "type": "Point", "coordinates": [ 103.852966963092868, 1.365384216384539 ] } },
{ "type": "Feature", "properties": { "Name": "SHENG SIONG SUPERMARKET PTE LTD", "Address": "Blk 233 ANG MO KIO AVENUE 3" }, "geometry": { "type": "Point", "coordinates": [ 103.836740637939499, 1.367549247830961 ] } },
{ "type": "Feature", "properties": { "Name": "PRIME SUPERMARKET (1996) PTE LTD", "Address": "Blk 106 HOUGANG AVENUE 1" }, "geometry": { "type": "Point", "coordinates": [ 103.890680794852798, 1.353702969337646 ] } },
{ "type": "Feature", "properties": { "Name": "TAN KWEE ENG", "Address": "Blk 327 YISHUN RING ROAD" }, "geometry": { "type": "Point", "coordinates": [ 103.842396448240208, 1.430071097067311 ] } },
{ "type": "Feature", "properties": { "Name": "SHENG SIONG SUPERMARKET PTE LTD", "Address": "Blk 122 ANG MO KIO AVENUE 3" }, "geometry": { "type": "Point", "coordinates": [ 103.843413241013252, 1.370188604362583 ] } },
{ "type": "Feature", "properties": { "Name": "KAI SOON SUPERMARKET PTE. LTD.", "Address": "Blk 780 YISHUN RING ROAD" }, "geometry": { "type": "Point", "coordinates": [ 103.832882666075477, 1.422138650283686 ] } },
{ "type": "Feature", "properties": { "Name": "COLD STORAGE SINGAPORE (1983) PTE LTD", "Address": "Blk 41 SUNSET WAY" }, "geometry": { "type": "Point", "coordinates": [ 103.767260053847522, 1.323250400852181 ] } },
{ "type": "Feature", "properties": { "Name": "THE FISHWIVES PTE. LTD.", "Address": "Blk 501 BUKIT TIMAH ROAD" }, "geometry": { "type": "Point", "coordinates": [ 103.814245545297254, 1.322573175939222 ] } },
{ "type": "Feature", "properties": { "Name": "PRIME SUPERMARKET LIMITED", "Address": "Blk 1 UPPER ALJUNIED LANE" }, "geometry": { "type": "Point", "coordinates": [ 103.878746214820083, 1.334292413752538 ] } },
{ "type": "Feature", "properties": { "Name": "ABEDIN TRADING PTE. LTD.", "Address": "Blk 599 GEYLANG ROAD" }, "geometry": { "type": "Point", "coordinates": [ 103.886699759328394, 1.314206548662401 ] } },
{ "type": "Feature", "properties": { "Name": "SONG FISH DEALER PTE LTD", "Address": "Blk 17 PETIR ROAD" }, "geometry": { "type": "Point", "coordinates": [ 103.762741183478497, 1.378349713513199 ] } },
{ "type": "Feature", "properties": { "Name": "THE SEAFOOD MARKET PLACE (BY SONG FISH) PTE. LTD.", "Address": "Blk 676 WOODLANDS DRIVE 71" }, "geometry": { "type": "Point", "coordinates": [ 103.800701205040795, 1.439916079013366 ] } },
{ "type": "Feature", "properties": { "Name": "BLUEWATER SEAFOOD PTE. LTD.", "Address": "Blk 8D DEMPSEY ROAD" }, "geometry": { "type": "Point", "coordinates": [ 103.809381672160086, 1.303445974430903 ] } },
{ "type": "Feature", "properties": { "Name": "WONS BUTCHERY PTE. LTD.", "Address": "Blk 1 ST. MARTIN'S DRIVE" }, "geometry": { "type": "Point", "coordinates": [ 103.824463823195131, 1.305709706462781 ] } },
{ "type": "Feature", "properties": { "Name": "B & S MINI MART PTE. LTD.", "Address": "Blk 310 GEYLANG ROAD" }, "geometry": { "type": "Point", "coordinates": [ 103.879622315430112, 1.312451045399602 ] } },
{ "type": "Feature", "properties": { "Name": "CHEE MIN KUAN, SIMON", "Address": "Blk 342 TANJONG KATONG ROAD" }, "geometry": { "type": "Point", "coordinates": [ 103.896498243507494, 1.303733734355678 ] } },
{ "type": "Feature", "properties": { "Name": "JSJ CORPORATION PTE. LTD.", "Address": "Blk 31A TANAH MERAH COAST ROAD" }, "geometry": { "type": "Point", "coordinates": [ 103.985869406122433, 1.318452010864344 ] } },
{ "type": "Feature", "properties": { "Name": "U STARS PTE. LTD.", "Address": "Blk 625 ELIAS ROAD" }, "geometry": { "type": "Point", "coordinates": [ 103.941978177655415, 1.378602380374992 ] } },
{ "type": "Feature", "properties": { "Name": "LOTTE MART PTE. LTD.", "Address": "Blk 17 LORONG KILAT" }, "geometry": { "type": "Point", "coordinates": [ 103.774213263460709, 1.340826614867928 ] } },
{ "type": "Feature", "properties": { "Name": "AJMAL TRADING GROUP PTE. LTD.", "Address": "Blk 5 JALAN PAPAN" }, "geometry": { "type": "Point", "coordinates": [ 103.727480745717443, 1.322108363140969 ] } },
{ "type": "Feature", "properties": { "Name": "MURUGAN TRADERS PTE LTD", "Address": "Blk 9 TRACTOR ROAD" }, "geometry": { "type": "Point", "coordinates": [ 103.705099705855105, 1.324919804133892 ] } },
{ "type": "Feature", "properties": { "Name": "SHENG SIONG SUPERMARKET PTE LTD", "Address": "Blk 440 BUKIT BATOK WEST AVENUE 8" }, "geometry": { "type": "Point", "coordinates": [ 103.739303106346071, 1.355723076076793 ] } },
{ "type": "Feature", "properties": { "Name": "SHENG SIONG SUPERMARKET PTE LTD", "Address": "Blk 785E WOODLANDS RISE" }, "geometry": { "type": "Point", "coordinates": [ 103.80548757911977, 1.446804131550357 ] } },
{ "type": "Feature", "properties": { "Name": "AJMAL TRADING GROUP PTE. LTD.", "Address": "Blk 2 WOODLANDS SECTOR 2" }, "geometry": { "type": "Point", "coordinates": [ 103.809438952914974, 1.461525547826337 ] } },
{ "type": "Feature", "properties": { "Name": "SHENG SIONG SUPERMARKET PTE LTD", "Address": "Blk 675 YISHUN AVENUE 4" }, "geometry": { "type": "Point", "coordinates": [ 103.843558892176517, 1.42015550315719 ] } },
{ "type": "Feature", "properties": { "Name": "PHAN NEE TRADING LLP", "Address": "Blk 2B YISHUN AVENUE 7" }, "geometry": { "type": "Point", "coordinates": [ 103.839030200377621, 1.444341295239443 ] } },
{ "type": "Feature", "properties": { "Name": "HAO MART PTE. LTD.", "Address": "Blk 658 PUNGGOL EAST" }, "geometry": { "type": "Point", "coordinates": [ 103.919352755683832, 1.399904204137241 ] } },
{ "type": "Feature", "properties": { "Name": "COLD STORAGE SINGAPORE (1983) PTE LTD", "Address": "Blk 525 ANG MO KIO AVENUE 10" }, "geometry": { "type": "Point", "coordinates": [ 103.853890711283441, 1.372645695427819 ] } },
{ "type": "Feature", "properties": { "Name": "PAN PACIFIC INTERNATIONAL HOLDINGS PTE. LTD.", "Address": "Blk 100 TRAS STREET" }, "geometry": { "type": "Point", "coordinates": [ 103.843470740865044, 1.274588224228702 ] } },
{ "type": "Feature", "properties": { "Name": "COLD STORAGE SINGAPORE (1983) PTE LTD", "Address": "Blk 291 JOO CHIAT ROAD" }, "geometry": { "type": "Point", "coordinates": [ 103.902232496984141, 1.309822273986524 ] } },
{ "type": "Feature", "properties": { "Name": "SHENG SIONG SUPERMARKET PTE LTD", "Address": "Blk 660A EDGEDALE PLAINS" }, "geometry": { "type": "Point", "coordinates": [ 103.916519601441209, 1.402621965104391 ] } },
{ "type": "Feature", "properties": { "Name": "VIVA CORP SERVICES PTE. LTD.", "Address": "Blk 23 KAKI BUKIT ROAD 3" }, "geometry": { "type": "Point", "coordinates": [ 103.90373508512188, 1.337338623685967 ] } },
{ "type": "Feature", "properties": { "Name": "SWISS BUTCHERY (2013) PRIVATE LIMITED", "Address": "Blk 30 GREENWOOD AVENUE" }, "geometry": { "type": "Point", "coordinates": [ 103.806586886275298, 1.331761099076414 ] } },
{ "type": "Feature", "properties": { "Name": "ROSWELL ENTERPRISE PTE LTD", "Address": "Blk 34 GREENWOOD AVENUE" }, "geometry": { "type": "Point", "coordinates": [ 103.806492419383616, 1.331832408086001 ] } },
{ "type": "Feature", "properties": { "Name": "T S J INDUSTRIAL (S) PTE. LTD.", "Address": "Blk 48 TOH GUAN ROAD EAST" }, "geometry": { "type": "Point", "coordinates": [ 103.75434143081938, 1.336830973719222 ] } },
{ "type": "Feature", "properties": { "Name": "FOODIE MARKET PLACE PTE. LTD.", "Address": "Blk 225 OUTRAM ROAD" }, "geometry": { "type": "Point", "coordinates": [ 103.835371310093407, 1.283450773131431 ] } },
{ "type": "Feature", "properties": { "Name": "MUSTAFA HOLDINGS PTE LTD", "Address": "Blk 147 SYED ALWI ROAD" }, "geometry": { "type": "Point", "coordinates": [ 103.855701594506911, 1.309752747146395 ] } },
{ "type": "Feature", "properties": { "Name": "HUBER'S PTE. LTD.", "Address": "Blk 22 DEMPSEY ROAD" }, "geometry": { "type": "Point", "coordinates": [ 103.810185824201781, 1.306792407188517 ] } },
{ "type": "Feature", "properties": { "Name": "MEAT THE BUTCHER PTE. LTD.", "Address": "Blk 615 BUKIT TIMAH ROAD" }, "geometry": { "type": "Point", "coordinates": [ 103.809357938828569, 1.324373509665355 ] } },
{ "type": "Feature", "properties": { "Name": "YEO KENG GUAN", "Address": "Blk 5 RIDGEWOOD CLOSE" }, "geometry": { "type": "Point", "coordinates": [ 103.778947263615819, 1.316618983365362 ] } },
{ "type": "Feature", "properties": { "Name": "COLD STORAGE SINGAPORE (1983) PTE LTD", "Address": "Blk 20 GREENWOOD AVENUE" }, "geometry": { "type": "Point", "coordinates": [ 103.806809259372983, 1.331491471556822 ] } },
{ "type": "Feature", "properties": { "Name": "COLD STORAGE SINGAPORE (1983) PTE LTD", "Address": "Blk 291 YISHUN STREET 22" }, "geometry": { "type": "Point", "coordinates": [ 103.836723882474232, 1.435760800715715 ] } },
{ "type": "Feature", "properties": { "Name": "CHD @ SOON LEE PTE. LTD.", "Address": "Blk 51 SOON LEE ROAD" }, "geometry": { "type": "Point", "coordinates": [ 103.699070270738261, 1.332122901366898 ] } },
{ "type": "Feature", "properties": { "Name": "SHENG SIONG SUPERMARKET PTE LTD", "Address": "Blk 3 YUAN CHING ROAD" }, "geometry": { "type": "Point", "coordinates": [ 103.725221546037147, 1.325468084099264 ] } },
{ "type": "Feature", "properties": { "Name": "MD SYDUR RAHMAN", "Address": "Blk 13 TUAS SOUTH STREET 5" }, "geometry": { "type": "Point", "coordinates": [ 103.62672926307873, 1.295013686475083 ] } },
{ "type": "Feature", "properties": { "Name": "7SEVEN PTE. LTD.", "Address": "Blk 51 NORTH COAST AVENUE" }, "geometry": { "type": "Point", "coordinates": [ 103.78643691689831, 1.45605972594876 ] } },
{ "type": "Feature", "properties": { "Name": "COLD STORAGE SINGAPORE (1983) PTE LTD", "Address": "Blk 1 FUSIONOPOLIS WAY" }, "geometry": { "type": "Point", "coordinates": [ 103.787404060027342, 1.299294066584199 ] } },
{ "type": "Feature", "properties": { "Name": "SHENG SIONG SUPERMARKET PTE LTD", "Address": "Blk 105 CANBERRA STREET" }, "geometry": { "type": "Point", "coordinates": [ 103.832392856091545, 1.448864020516015 ] } },
{ "type": "Feature", "properties": { "Name": "U STARS PTE. LTD.", "Address": "Blk 691 WOODLANDS DRIVE 73" }, "geometry": { "type": "Point", "coordinates": [ 103.806198058318358, 1.440629922329109 ] } },
{ "type": "Feature", "properties": { "Name": "SHENG SIONG SUPERMARKET PTE LTD", "Address": "Blk 338 ANCHORVALE CRESCENT" }, "geometry": { "type": "Point", "coordinates": [ 103.88965392106266, 1.399228565808986 ] } },
{ "type": "Feature", "properties": { "Name": "SHENG SIONG SUPERMARKET PTE LTD", "Address": "Blk 417 FERNVALE LINK" }, "geometry": { "type": "Point", "coordinates": [ 103.879872489528395, 1.391587041391925 ] } },
{ "type": "Feature", "properties": { "Name": "BHANDARI INTERNATIONAL PTE. LTD.", "Address": "Blk 280 WOODLANDS INDUSTRIAL PARK E5 (PART OF)" }, "geometry": { "type": "Point", "coordinates": [ 103.791095177078219, 1.451325053046333 ] } },
{ "type": "Feature", "properties": { "Name": "SHENG SIONG SUPERMARKET PTE LTD", "Address": "Blk 4 WOODLANDS STREET 12" }, "geometry": { "type": "Point", "coordinates": [ 103.779746864011813, 1.433512533503224 ] } },
{ "type": "Feature", "properties": { "Name": "WAN SIEW YOONG", "Address": "Blk 4 SAGO LANE" }, "geometry": { "type": "Point", "coordinates": [ 103.842908168065009, 1.281800624559336 ] } },
{ "type": "Feature", "properties": { "Name": "HAO MART PTE. LTD.", "Address": "Blk 17 JALAN TENTERAM" }, "geometry": { "type": "Point", "coordinates": [ 103.859812582011003, 1.328211694743873 ] } },
{ "type": "Feature", "properties": { "Name": "MCP FAIRMART PTE LTD", "Address": "Blk BLK 371 BUKIT BATOK STREET 31" }, "geometry": { "type": "Point", "coordinates": [ 103.750694637279494, 1.359259406996908 ] } },
{ "type": "Feature", "properties": { "Name": "HAO MART PTE. LTD.", "Address": "Blk 146 JALAN BUKIT MERAH" }, "geometry": { "type": "Point", "coordinates": [ 103.830811469036959, 1.27784876908694 ] } },
{ "type": "Feature", "properties": { "Name": "SHENG SIONG SUPERMARKET PTE LTD", "Address": "Blk 720 CLEMENTI WEST STREET 2" }, "geometry": { "type": "Point", "coordinates": [ 103.763750974318242, 1.302464091933941 ] } },
{ "type": "Feature", "properties": { "Name": "PRIME SUPERMARKET LIMITED", "Address": "Blk 803 KING GEORGE'S AVENUE" }, "geometry": { "type": "Point", "coordinates": [ 103.860912787998799, 1.308365268412557 ] } },
{ "type": "Feature", "properties": { "Name": "PRIME SUPERMARKET LIMITED", "Address": "Blk 823 TAMPINES STREET 81" }, "geometry": { "type": "Point", "coordinates": [ 103.934010241001133, 1.348732840702026 ] } },
{ "type": "Feature", "properties": { "Name": "COLD STORAGE SINGAPORE (1983) PTE LTD", "Address": "Blk 829 TAMPINES STREET 81" }, "geometry": { "type": "Point", "coordinates": [ 103.934912522808531, 1.349224187714914 ] } },
{ "type": "Feature", "properties": { "Name": "COLD STORAGE SINGAPORE (1983) PTE LTD", "Address": "Blk 548 WOODLANDS DRIVE 44" }, "geometry": { "type": "Point", "coordinates": [ 103.793416332651049, 1.430840066335466 ] } },
{ "type": "Feature", "properties": { "Name": "LIN POH LING", "Address": "Blk 212 LORONG 8 TOA PAYOH" }, "geometry": { "type": "Point", "coordinates": [ 103.854334496722615, 1.340642933080359 ] } },
{ "type": "Feature", "properties": { "Name": "COLD STORAGE SINGAPORE (1983) PTE LTD", "Address": "Blk 230 VICTORIA STREET" }, "geometry": { "type": "Point", "coordinates": [ 103.855786976517777, 1.300142483269731 ] } },
{ "type": "Feature", "properties": { "Name": "NAWAS GLOBAL PTE. LTD.", "Address": "Blk 3 TUAS SOUTH STREET 12" }, "geometry": { "type": "Point", "coordinates": [ 103.633512282371257, 1.271642262635223 ] } },
{ "type": "Feature", "properties": { "Name": "SADIA MINIMART PTE LTD", "Address": "Blk 11 MANDAI ESTATE" }, "geometry": { "type": "Point", "coordinates": [ 103.759406170784018, 1.408529965704229 ] } },
{ "type": "Feature", "properties": { "Name": "SHENG SIONG SUPERMARKET PTE LTD", "Address": "Blk 61 TEBAN GARDENS ROAD" }, "geometry": { "type": "Point", "coordinates": [ 103.738292804657661, 1.322136362887766 ] } },
{ "type": "Feature", "properties": { "Name": "PHAN NEE INVESTMENTS (S) PTE LTD", "Address": "Blk 500 OLD CHOA CHU KANG ROAD" }, "geometry": { "type": "Point", "coordinates": [ 103.718403752899107, 1.377610838977397 ] } },
{ "type": "Feature", "properties": { "Name": "COLD STORAGE SINGAPORE (1983) PTE LTD", "Address": "Blk 430 UPPER CHANGI ROAD" }, "geometry": { "type": "Point", "coordinates": [ 103.946201244495469, 1.331775816682261 ] } },
{ "type": "Feature", "properties": { "Name": "RAW MARKET PTE. LTD.", "Address": "Blk 11 PASIR RIS LINK" }, "geometry": { "type": "Point", "coordinates": [ 103.960839727951537, 1.375588307639114 ] } },
{ "type": "Feature", "properties": { "Name": "THE BUTCHER (SINGAPORE) PTE. LTD.", "Address": "Blk 44 JALAN MERAH SAGA" }, "geometry": { "type": "Point", "coordinates": [ 103.79684404699168, 1.311921956381806 ] } },
{ "type": "Feature", "properties": { "Name": "HAO MART PTE. LTD.", "Address": "Blk 239 YISHUN RING ROAD" }, "geometry": { "type": "Point", "coordinates": [ 103.839685380422026, 1.433595142460734 ] } },
{ "type": "Feature", "properties": { "Name": "SEOUL BUTCHERY PTE. LTD.", "Address": "Blk 13 YUK TONG AVENUE" }, "geometry": { "type": "Point", "coordinates": [ 103.774632799753945, 1.342074963001162 ] } },
{ "type": "Feature", "properties": { "Name": "V SURESH KUMAR", "Address": "Blk 51 ADMIRALTY ROAD WEST - LODGE 1" }, "geometry": { "type": "Point", "coordinates": [ 103.820073449021564, 1.459828173983036 ] } },
{ "type": "Feature", "properties": { "Name": "HAO MART PTE. LTD.", "Address": "Blk 448\/450 GEYLANG ROAD" }, "geometry": { "type": "Point", "coordinates": [ 103.883646674404091, 1.313175097159618 ] } },
{ "type": "Feature", "properties": { "Name": "COLD STORAGE SINGAPORE (1983) PTE LTD", "Address": "Blk 5 STRAITS VIEW" }, "geometry": { "type": "Point", "coordinates": [ 103.852844804263526, 1.277372360435622 ] } },
{ "type": "Feature", "properties": { "Name": "POPULAR SUPERMARKET PTE LTD", "Address": "Blk 12 TUAS SOUTH STREET 13" }, "geometry": { "type": "Point", "coordinates": [ 103.634163915465379, 1.270309783884678 ] } },
{ "type": "Feature", "properties": { "Name": "SADIA SUPERMARKET & TRADING (S) PTE. LTD.", "Address": "Blk 12 TUAS SOUTH STREET 13" }, "geometry": { "type": "Point", "coordinates": [ 103.634163915465379, 1.270309783884678 ] } },
{ "type": "Feature", "properties": { "Name": "COLD STORAGE SINGAPORE (1983) PTE LTD", "Address": "Blk 31 OCEAN WAY" }, "geometry": { "type": "Point", "coordinates": [ 103.841921096860986, 1.247758618647255 ] } },
{ "type": "Feature", "properties": { "Name": "COLD STORAGE SINGAPORE (1983) PTE LTD", "Address": "Blk 383 BUKIT TIMAH ROAD" }, "geometry": { "type": "Point", "coordinates": [ 103.827345851389495, 1.319436175215409 ] } },
{ "type": "Feature", "properties": { "Name": "COLD STORAGE SINGAPORE (1983) PTE LTD", "Address": "Blk 512 BISHAN STREET 13" }, "geometry": { "type": "Point", "coordinates": [ 103.849881701298187, 1.349622344031466 ] } },
{ "type": "Feature", "properties": { "Name": "NTUC FAIRPRICE CO-OPERATIVE LTD", "Address": "Blk 192 LORONG 4 TOA PAYOH" }, "geometry": { "type": "Point", "coordinates": [ 103.850483008705325, 1.331661834294792 ] } },
{ "type": "Feature", "properties": { "Name": "NTUC FAIRPRICE CO-OPERATIVE LTD", "Address": "Blk 475 TAMPINES STREET 44" }, "geometry": { "type": "Point", "coordinates": [ 103.953125974102178, 1.360323317265888 ] } },
{ "type": "Feature", "properties": { "Name": "NTUC FAIRPRICE CO-OPERATIVE LTD", "Address": "Blk 107 TAMPINES STREET 11" }, "geometry": { "type": "Point", "coordinates": [ 103.948128932392635, 1.348371048242748 ] } },
{ "type": "Feature", "properties": { "Name": "NTUC FAIRPRICE CO-OPERATIVE LTD", "Address": "Blk 500 LORONG 6 TOA PAYOH" }, "geometry": { "type": "Point", "coordinates": [ 103.847050353796817, 1.33296549379099 ] } },
{ "type": "Feature", "properties": { "Name": "NTUC FAIRPRICE CO-OPERATIVE LTD", "Address": "Blk 110 LENGKONG TIGA" }, "geometry": { "type": "Point", "coordinates": [ 103.910689656956421, 1.323976883572483 ] } },
{ "type": "Feature", "properties": { "Name": "NTUC FAIRPRICE CO-OPERATIVE LTD", "Address": "Blk 279 BISHAN STREET 24" }, "geometry": { "type": "Point", "coordinates": [ 103.843785259757695, 1.357222823771378 ] } },
{ "type": "Feature", "properties": { "Name": "NTUC FAIRPRICE CO-OPERATIVE LTD", "Address": "Blk 734 PASIR RIS STREET 72" }, "geometry": { "type": "Point", "coordinates": [ 103.936207570695899, 1.379767536195756 ] } },
{ "type": "Feature", "properties": { "Name": "NTUC FAIRPRICE CO-OPERATIVE LTD", "Address": "Blk 2 JOO CHIAT ROAD" }, "geometry": { "type": "Point", "coordinates": [ 103.898764898641872, 1.31553964712889 ] } },
{ "type": "Feature", "properties": { "Name": "NTUC FAIRPRICE CO-OPERATIVE LTD", "Address": "Blk 41 JALAN TIGA" }, "geometry": { "type": "Point", "coordinates": [ 103.884763855716955, 1.307827372473687 ] } },
{ "type": "Feature", "properties": { "Name": "NTUC FAIRPRICE CO-OPERATIVE LTD", "Address": "Blk 65 AIRPORT BOULEVARD" }, "geometry": { "type": "Point", "coordinates": [ 103.985169647876589, 1.354370737982976 ] } },
{ "type": "Feature", "properties": { "Name": "NTUC FAIRPRICE CO-OPERATIVE LTD", "Address": "Blk 5 EUNOS CRESCENT" }, "geometry": { "type": "Point", "coordinates": [ 103.903266275568228, 1.3211897960458 ] } },
{ "type": "Feature", "properties": { "Name": "NTUC FAIRPRICE CO-OPERATIVE LTD", "Address": "Blk 89 BEDOK NORTH STREET 4" }, "geometry": { "type": "Point", "coordinates": [ 103.938051292003209, 1.33233467983475 ] } },
{ "type": "Feature", "properties": { "Name": "NTUC FAIRPRICE CO-OPERATIVE LTD", "Address": "Blk 612-620 GEYLANG ROAD" }, "geometry": { "type": "Point", "coordinates": [ 103.888544913633652, 1.314149968354415 ] } },
{ "type": "Feature", "properties": { "Name": "NTUC FAIRPRICE CO-OPERATIVE LTD", "Address": "Blk 8 CHANGI BUSINESS PARK AVENUE 1" }, "geometry": { "type": "Point", "coordinates": [ 103.96365390777639, 1.334919773992499 ] } },
{ "type": "Feature", "properties": { "Name": "NTUC FAIRPRICE CO-OPERATIVE LTD", "Address": "Blk 57 NEW UPPER CHANGI ROAD" }, "geometry": { "type": "Point", "coordinates": [ 103.941568707499741, 1.324245549911849 ] } },
{ "type": "Feature", "properties": { "Name": "NTUC FAIRPRICE CO-OPERATIVE LTD", "Address": "Blk 60 AIRPORT BOULEVARD" }, "geometry": { "type": "Point", "coordinates": [ 103.988750977655613, 1.355190944090195 ] } },
{ "type": "Feature", "properties": { "Name": "NTUC FAIRPRICE CO-OPERATIVE LTD", "Address": "Blk 30 EAST COAST ROAD" }, "geometry": { "type": "Point", "coordinates": [ 103.902850380056819, 1.303850308482598 ] } },
{ "type": "Feature", "properties": { "Name": "NTUC FAIRPRICE CO-OPERATIVE LTD", "Address": "Blk 6 POTONG PASIR AVENUE 2" }, "geometry": { "type": "Point", "coordinates": [ 103.867036838440924, 1.33253590792602 ] } },
{ "type": "Feature", "properties": { "Name": "NTUC FAIRPRICE CO-OPERATIVE LTD", "Address": "Blk 401 MACPHERSON ROAD" }, "geometry": { "type": "Point", "coordinates": [ 103.879294502591023, 1.331770550278869 ] } },
{ "type": "Feature", "properties": { "Name": "NTUC FAIRPRICE CO-OPERATIVE LTD", "Address": "Blk 18 TAI SENG STREET" }, "geometry": { "type": "Point", "coordinates": [ 103.888762709437287, 1.336538676581906 ] } },
{ "type": "Feature", "properties": { "Name": "JMD RETAIL PTE. LTD.", "Address": "Blk 330 TANJONG KATONG ROAD" }, "geometry": { "type": "Point", "coordinates": [ 103.896327021938333, 1.30416447197841 ] } },
{ "type": "Feature", "properties": { "Name": "COLD STORAGE SINGAPORE (1983) PTE LTD", "Address": "Blk 1 HARBOURFRONT WALK" }, "geometry": { "type": "Point", "coordinates": [ 103.821589250414533, 1.263895819502791 ] } },
{ "type": "Feature", "properties": { "Name": "NTUC FAIRPRICE CO-OPERATIVE LTD", "Address": "Blk 28 DOVER CRESCENT" }, "geometry": { "type": "Point", "coordinates": [ 103.781697201376872, 1.30476357340406 ] } },
{ "type": "Feature", "properties": { "Name": "NTUC FAIRPRICE CO-OPERATIVE LTD", "Address": "Blk 140 TECK WHYE LANE" }, "geometry": { "type": "Point", "coordinates": [ 103.75311841662014, 1.380030577650629 ] } },
{ "type": "Feature", "properties": { "Name": "NTUC FAIRPRICE CO-OPERATIVE LTD", "Address": "Blk 63 JURONG WEST CENTRAL 3" }, "geometry": { "type": "Point", "coordinates": [ 103.705351000577338, 1.339315039390869 ] } },
{ "type": "Feature", "properties": { "Name": "NTUC FAIRPRICE CO-OPERATIVE LTD", "Address": "Blk 61 CHOA CHU KANG DRIVE" }, "geometry": { "type": "Point", "coordinates": [ 103.747329724588539, 1.39712885652649 ] } },
{ "type": "Feature", "properties": { "Name": "LAMIAH ENTERPRISE PTE. LTD.", "Address": "Blk 5 TECH PARK CRESCENT" }, "geometry": { "type": "Point", "coordinates": [ 103.630340087982674, 1.311467847399736 ] } },
{ "type": "Feature", "properties": { "Name": "NTUC FAIRPRICE CO-OPERATIVE LTD", "Address": "Blk 78A TELOK BLANGAH STREET 32" }, "geometry": { "type": "Point", "coordinates": [ 103.808934817337956, 1.273382529999815 ] } },
{ "type": "Feature", "properties": { "Name": "NTUC FAIRPRICE CO-OPERATIVE LTD", "Address": "Blk 352 CLEMENTI AVENUE 2" }, "geometry": { "type": "Point", "coordinates": [ 103.771350566041846, 1.314278608956548 ] } },
{ "type": "Feature", "properties": { "Name": "NTUC FAIRPRICE CO-OPERATIVE LTD", "Address": "Blk 498 JURONG WEST STREET 41" }, "geometry": { "type": "Point", "coordinates": [ 103.724307327759192, 1.348333349080913 ] } },
{ "type": "Feature", "properties": { "Name": "NTUC FAIRPRICE CO-OPERATIVE LTD", "Address": "Blk 502 WEST COAST DRIVE" }, "geometry": { "type": "Point", "coordinates": [ 103.759080943920836, 1.311885960986308 ] } },
{ "type": "Feature", "properties": { "Name": "NTUC FAIRPRICE CO-OPERATIVE LTD", "Address": "Blk 1 LOWER KENT RIDGE ROAD" }, "geometry": { "type": "Point", "coordinates": [ 103.784084020186782, 1.292774326959023 ] } },
{ "type": "Feature", "properties": { "Name": "NTUC FAIRPRICE CO-OPERATIVE LTD", "Address": "Blk 280 BUKIT BATOK EAST AVENUE 3" }, "geometry": { "type": "Point", "coordinates": [ 103.7570445862561, 1.347701477794245 ] } },
{ "type": "Feature", "properties": { "Name": "NTUC FAIRPRICE CO-OPERATIVE LTD", "Address": "Blk 2 BUKIT BATOK WEST AVENUE 7" }, "geometry": { "type": "Point", "coordinates": [ 103.746847123122095, 1.366506980926088 ] } },
{ "type": "Feature", "properties": { "Name": "SHINVA AGRO FOODS PTE. LTD.", "Address": "Blk 11 TECH PARK CRESCENT" }, "geometry": { "type": "Point", "coordinates": [ 103.631572325733416, 1.311002402597013 ] } },
{ "type": "Feature", "properties": { "Name": "NTUC FAIRPRICE CO-OPERATIVE LTD", "Address": "Blk 1 JOO KOON CIRCLE" }, "geometry": { "type": "Point", "coordinates": [ 103.678096368720105, 1.324606651011488 ] } },
{ "type": "Feature", "properties": { "Name": "SHINVA AGRO FOODS PTE. LTD.", "Address": "Blk 115 TUAS VIEW WALK 1" }, "geometry": { "type": "Point", "coordinates": [ 103.627788892116499, 1.30091146604999 ] } },
{ "type": "Feature", "properties": { "Name": "NTUC FAIRPRICE CO-OPERATIVE LTD", "Address": "Blk 533 CHOA CHU KANG STREET 51" }, "geometry": { "type": "Point", "coordinates": [ 103.74309957614355, 1.392073879434779 ] } },
{ "type": "Feature", "properties": { "Name": "NTUC FAIRPRICE CO-OPERATIVE LTD", "Address": "Blk 37 TEBAN GARDENS ROAD" }, "geometry": { "type": "Point", "coordinates": [ 103.74265152289253, 1.3205202719914 ] } },
{ "type": "Feature", "properties": { "Name": "PHAN NEE INVESTMENTS (S) PTE LTD", "Address": "Blk 500 OLD CHOA CHU KANG ROAD" }, "geometry": { "type": "Point", "coordinates": [ 103.720857418901772, 1.371932804715582 ] } },
{ "type": "Feature", "properties": { "Name": "NTUC FAIRPRICE CO-OPERATIVE LTD", "Address": "Blk 249 JURONG EAST STREET 24" }, "geometry": { "type": "Point", "coordinates": [ 103.739199499869045, 1.342591041677322 ] } },
{ "type": "Feature", "properties": { "Name": "THE QUALITYMART DEPOT PTE. LTD.", "Address": "Blk 180 DEPOT ROAD" }, "geometry": { "type": "Point", "coordinates": [ 103.803023763143059, 1.282201364277263 ] } },
{ "type": "Feature", "properties": { "Name": "COLD STORAGE SINGAPORE (1983) PTE LTD", "Address": "Blk 35 STUDENTS WALK" }, "geometry": { "type": "Point", "coordinates": [ 103.685418471526603, 1.348133785036882 ] } },
{ "type": "Feature", "properties": { "Name": "SHENG SIONG SUPERMARKET PTE LTD", "Address": "Blk 451 BUKIT BATOK WEST AVENUE 6" }, "geometry": { "type": "Point", "coordinates": [ 103.743948448002982, 1.35303824733646 ] } },
{ "type": "Feature", "properties": { "Name": "HONESTBEE PTE. LTD.", "Address": "Blk 34 BOON LEAT TERRACE" }, "geometry": { "type": "Point", "coordinates": [ 103.797187338710515, 1.276045194755426 ] } },
{ "type": "Feature", "properties": { "Name": "NTUC FAIRPRICE CO-OPERATIVE LTD", "Address": "Blk 166 BUKIT MERAH CENTRAL" }, "geometry": { "type": "Point", "coordinates": [ 103.817642874204353, 1.283119502779159 ] } },
{ "type": "Feature", "properties": { "Name": "NTUC FAIRPRICE CO-OPERATIVE LTD", "Address": "Blk 360 BALESTIER ROAD" }, "geometry": { "type": "Point", "coordinates": [ 103.851055636334976, 1.325126532927023 ] } },
{ "type": "Feature", "properties": { "Name": "NTUC FAIRPRICE CO-OPERATIVE LTD", "Address": "Blk 50 HAVELOCK ROAD" }, "geometry": { "type": "Point", "coordinates": [ 103.826793758817985, 1.289778140036262 ] } },
{ "type": "Feature", "properties": { "Name": "NTUC FAIRPRICE CO-OPERATIVE LTD", "Address": "Blk 5 TANJONG PAGAR PLAZA" }, "geometry": { "type": "Point", "coordinates": [ 103.843006122100974, 1.276240529757539 ] } },
{ "type": "Feature", "properties": { "Name": "NTUC FAIRPRICE CO-OPERATIVE LTD", "Address": "Blk 131 KILLINEY ROAD" }, "geometry": { "type": "Point", "coordinates": [ 103.838533933774784, 1.297275320477895 ] } },
{ "type": "Feature", "properties": { "Name": "NTUC FAIRPRICE CO-OPERATIVE LTD", "Address": "Blk 71 WOODLANDS AVENUE 3" }, "geometry": { "type": "Point", "coordinates": [ 103.774051198698459, 1.432626029393597 ] } },
{ "type": "Feature", "properties": { "Name": "NTUC FAIRPRICE CO-OPERATIVE LTD", "Address": "Blk 414 YISHUN RING ROAD" }, "geometry": { "type": "Point", "coordinates": [ 103.846595550970875, 1.424528481185306 ] } },
{ "type": "Feature", "properties": { "Name": "NTUC FAIRPRICE CO-OPERATIVE LTD", "Address": "Blk 30 WOODLANDS AVENUE 1" }, "geometry": { "type": "Point", "coordinates": [ 103.781136890158081, 1.429194682597919 ] } },
{ "type": "Feature", "properties": { "Name": "NTUC FAIRPRICE CO-OPERATIVE LTD", "Address": "Blk 301 YISHUN AVENUE 2" }, "geometry": { "type": "Point", "coordinates": [ 103.834995142859611, 1.429525220566809 ] } },
{ "type": "Feature", "properties": { "Name": "NTUC FAIRPRICE CO-OPERATIVE LTD", "Address": "Blk 849 YISHUN RING ROAD" }, "geometry": { "type": "Point", "coordinates": [ 103.835218187742527, 1.416983155816384 ] } },
{ "type": "Feature", "properties": { "Name": "NTUC FAIRPRICE CO-OPERATIVE LTD", "Address": "Blk 628 SENJA ROAD" }, "geometry": { "type": "Point", "coordinates": [ 103.760218439755818, 1.385096014667308 ] } },
{ "type": "Feature", "properties": { "Name": "NTUC FAIRPRICE CO-OPERATIVE LTD", "Address": "Blk 215 ANG MO KIO AVENUE 1" }, "geometry": { "type": "Point", "coordinates": [ 103.841624088451766, 1.366558298572115 ] } },
{ "type": "Feature", "properties": { "Name": "NTUC FAIRPRICE CO-OPERATIVE LTD", "Address": "Blk 1 ORCHID CLUB ROAD" }, "geometry": { "type": "Point", "coordinates": [ 103.844039899419386, 1.411035981122668 ] } },
{ "type": "Feature", "properties": { "Name": "NTUC FAIRPRICE CO-OPERATIVE LTD", "Address": "Blk 451 CLEMENTI AVENUE 3" }, "geometry": { "type": "Point", "coordinates": [ 103.765476758595895, 1.312482993297559 ] } },
{ "type": "Feature", "properties": { "Name": "NTUC FAIRPRICE CO-OPERATIVE LTD", "Address": "Blk 135 JURONG EAST STREET 13" }, "geometry": { "type": "Point", "coordinates": [ 103.739371389065539, 1.333753432895276 ] } },
{ "type": "Feature", "properties": { "Name": "NTUC FAIRPRICE CO-OPERATIVE LTD", "Address": "Blk 63\/66 YUNG KUANG ROAD" }, "geometry": { "type": "Point", "coordinates": [ 103.722452888407318, 1.332059376382466 ] } },
{ "type": "Feature", "properties": { "Name": "NTUC FAIRPRICE CO-OPERATIVE LTD", "Address": "Blk 166 BUKIT BATOK WEST AVENUE 8" }, "geometry": { "type": "Point", "coordinates": [ 103.742807882959895, 1.347162359265539 ] } },
{ "type": "Feature", "properties": { "Name": "NTUC FAIRPRICE CO-OPERATIVE LTD", "Address": "Blk 10 BUKIT BATOK CENTRAL" }, "geometry": { "type": "Point", "coordinates": [ 103.749334526389902, 1.348710801433088 ] } },
{ "type": "Feature", "properties": { "Name": "NTUC FAIRPRICE CO-OPERATIVE LTD", "Address": "Blk BLK 345 JURONG EAST STREET 31" }, "geometry": { "type": "Point", "coordinates": [ 103.731219147650265, 1.34551209957768 ] } },
{ "type": "Feature", "properties": { "Name": "SHENG SIONG SUPERMARKET PTE LTD", "Address": "Blk 19 SERANGOON NORTH AVENUE 5" }, "geometry": { "type": "Point", "coordinates": [ 103.871996419078386, 1.375635001651754 ] } },
{ "type": "Feature", "properties": { "Name": "NTUC FAIRPRICE CO-OPERATIVE LTD", "Address": "Blk 71 KALLANG BAHRU" }, "geometry": { "type": "Point", "coordinates": [ 103.870389995934758, 1.320992949951092 ] } },
{ "type": "Feature", "properties": { "Name": "NTUC FAIRPRICE CO-OPERATIVE LTD", "Address": "Blk 1 JALAN BUKIT MERAH" }, "geometry": { "type": "Point", "coordinates": [ 103.80824240095933, 1.286453543750272 ] } },
{ "type": "Feature", "properties": { "Name": "NTUC FAIRPRICE CO-OPERATIVE LTD", "Address": "Blk 43 CAMBRIDGE ROAD" }, "geometry": { "type": "Point", "coordinates": [ 103.849434508530521, 1.315363033573131 ] } },
{ "type": "Feature", "properties": { "Name": "NTUC FAIRPRICE CO-OPERATIVE LTD", "Address": "Blk 5 UPPER BOON KENG ROAD" }, "geometry": { "type": "Point", "coordinates": [ 103.872541799549865, 1.312654500879968 ] } },
{ "type": "Feature", "properties": { "Name": "NTUC FAIRPRICE CO-OPERATIVE LTD", "Address": "Blk 18 \/20 KIM TIAN ROAD" }, "geometry": { "type": "Point", "coordinates": [ 103.829298011427042, 1.2848073461512 ] } },
{ "type": "Feature", "properties": { "Name": "NTUC FAIRPRICE CO-OPERATIVE LTD", "Address": "Blk 80 LORONG LIMAU" }, "geometry": { "type": "Point", "coordinates": [ 103.855670628838311, 1.323796079251409 ] } },
{ "type": "Feature", "properties": { "Name": "NTUC FAIRPRICE CO-OPERATIVE LTD", "Address": "Blk 150 SILAT AVENUE" }, "geometry": { "type": "Point", "coordinates": [ 103.831425859725201, 1.277077075901493 ] } },
{ "type": "Feature", "properties": { "Name": "JEWISH WELFARE BOARD, SINGAPORE, THE", "Address": "Blk 24 WATERLOO STREET" }, "geometry": { "type": "Point", "coordinates": [ 103.850599507142547, 1.29827328917747 ] } },
{ "type": "Feature", "properties": { "Name": "NTUC FAIRPRICE CO-OPERATIVE LTD", "Address": "Blk 712 ANG MO KIO AVENUE 6" }, "geometry": { "type": "Point", "coordinates": [ 103.847082884001367, 1.371409204621989 ] } },
{ "type": "Feature", "properties": { "Name": "NTUC FAIRPRICE CO-OPERATIVE LTD", "Address": "Blk 100 TRAS STREET" }, "geometry": { "type": "Point", "coordinates": [ 103.843470740865044, 1.274588224228702 ] } },
{ "type": "Feature", "properties": { "Name": "NTUC FAIRPRICE CO-OPERATIVE LTD", "Address": "Blk 447A JALAN KAYU" }, "geometry": { "type": "Point", "coordinates": [ 103.872490556755707, 1.392138283931071 ] } },
{ "type": "Feature", "properties": { "Name": "COLD STORAGE SINGAPORE (1983) PTE LTD", "Address": "Blk 3 TEMASEK BOULEVARD" }, "geometry": { "type": "Point", "coordinates": [ 103.857675501543014, 1.294879051122393 ] } },
{ "type": "Feature", "properties": { "Name": "COLD STORAGE SINGAPORE (1983) PTE LTD", "Address": "Blk 16 ENGGOR STREET" }, "geometry": { "type": "Point", "coordinates": [ 103.844319555700054, 1.274617941775905 ] } },
{ "type": "Feature", "properties": { "Name": "NTUC FAIRPRICE CO-OPERATIVE LTD", "Address": "Blk 279 SENGKANG EAST AVENUE" }, "geometry": { "type": "Point", "coordinates": [ 103.892995500980305, 1.386218352881005 ] } },
{ "type": "Feature", "properties": { "Name": "NTUC FAIRPRICE CO-OPERATIVE LTD", "Address": "Blk 20 LENGKOK BAHRU" }, "geometry": { "type": "Point", "coordinates": [ 103.813766343919085, 1.286680272348023 ] } },
{ "type": "Feature", "properties": { "Name": "NTUC FAIRPRICE CO-OPERATIVE LTD", "Address": "Blk 574 ANG MO KIO AVENUE 10" }, "geometry": { "type": "Point", "coordinates": [ 103.85639651347492, 1.370894561076278 ] } },
{ "type": "Feature", "properties": { "Name": "NTUC FAIRPRICE CO-OPERATIVE LTD", "Address": "Blk 410A SIN MING AVENUE" }, "geometry": { "type": "Point", "coordinates": [ 103.835445360582483, 1.363215861078038 ] } },
{ "type": "Feature", "properties": { "Name": "NTUC FAIRPRICE CO-OPERATIVE LTD", "Address": "Blk 30 BENDEMEER ROAD" }, "geometry": { "type": "Point", "coordinates": [ 103.863905326289412, 1.319093441858718 ] } },
{ "type": "Feature", "properties": { "Name": "NTUC FAIRPRICE CO-OPERATIVE LTD", "Address": "Blk 95 LORONG 4 TOA PAYOH" }, "geometry": { "type": "Point", "coordinates": [ 103.848993319082425, 1.33889072011443 ] } },
{ "type": "Feature", "properties": { "Name": "SF (313) PTE. LTD.", "Address": "Blk 3 TEMASEK BOULEVARD" }, "geometry": { "type": "Point", "coordinates": [ 103.857675501543014, 1.294879051122393 ] } },
{ "type": "Feature", "properties": { "Name": "YOUR GROCER PRIVATE LIMITED", "Address": "Blk 34 JALAN BUKIT HO SWEE" }, "geometry": { "type": "Point", "coordinates": [ 103.827081283638094, 1.288076883018964 ] } },
{ "type": "Feature", "properties": { "Name": "COLD STORAGE SINGAPORE (1983) PTE LTD", "Address": "Blk 8A MARINA BOULEVARD" }, "geometry": { "type": "Point", "coordinates": [ 103.853349301910455, 1.280227686120211 ] } },
{ "type": "Feature", "properties": { "Name": "NTUC FAIRPRICE CO-OPERATIVE LTD", "Address": "Blk 114 ALJUNIED AVENUE 2" }, "geometry": { "type": "Point", "coordinates": [ 103.8866727866627, 1.321766445868741 ] } },
{ "type": "Feature", "properties": { "Name": "NTUC FAIRPRICE CO-OPERATIVE LTD", "Address": "Blk 212 BEDOK NORTH STREET 1" }, "geometry": { "type": "Point", "coordinates": [ 103.931640028653661, 1.325940696830029 ] } },
{ "type": "Feature", "properties": { "Name": "NTUC FAIRPRICE CO-OPERATIVE LTD", "Address": "Blk 152B SERANGOON NORTH AVENUE 1" }, "geometry": { "type": "Point", "coordinates": [ 103.873035798473268, 1.369799401826475 ] } },
{ "type": "Feature", "properties": { "Name": "NTUC FAIRPRICE CO-OPERATIVE LTD", "Address": "Blk 6 MARINE PARADE CENTRAL" }, "geometry": { "type": "Point", "coordinates": [ 103.907112664974576, 1.301419557057475 ] } },
{ "type": "Feature", "properties": { "Name": "NTUC FAIRPRICE CO-OPERATIVE LTD", "Address": "Blk 934 EAST COAST ROAD" }, "geometry": { "type": "Point", "coordinates": [ 103.925234538249597, 1.312307528217832 ] } },
{ "type": "Feature", "properties": { "Name": "NTUC FAIRPRICE CO-OPERATIVE LTD", "Address": "Blk 77 CIRCUIT ROAD" }, "geometry": { "type": "Point", "coordinates": [ 103.885349909652803, 1.328556569279292 ] } },
{ "type": "Feature", "properties": { "Name": "NTUC FAIRPRICE CO-OPERATIVE LTD", "Address": "Blk 239\/255 EAST COAST ROAD" }, "geometry": { "type": "Point", "coordinates": [ 103.907988815994855, 1.30836165161702 ] } },
{ "type": "Feature", "properties": { "Name": "NTUC FAIRPRICE CO-OPERATIVE LTD", "Address": "Blk 221 BOON LAY PLACE" }, "geometry": { "type": "Point", "coordinates": [ 103.712429317151859, 1.346348192938859 ] } },
{ "type": "Feature", "properties": { "Name": "NTUC FAIRPRICE CO-OPERATIVE LTD", "Address": "Blk 138 TAMPINES STREET 11" }, "geometry": { "type": "Point", "coordinates": [ 103.94534429471689, 1.345281441621 ] } },
{ "type": "Feature", "properties": { "Name": "NTUC FAIRPRICE CO-OPERATIVE LTD", "Address": "Blk 866A TAMPINES STREET 83" }, "geometry": { "type": "Point", "coordinates": [ 103.934315234756824, 1.355421762679493 ] } },
{ "type": "Feature", "properties": { "Name": "NTUC FAIRPRICE CO-OPERATIVE LTD", "Address": "Blk BLK 277C COMPASSVALE LINK" }, "geometry": { "type": "Point", "coordinates": [ 103.893607840928738, 1.38233698021694 ] } },
{ "type": "Feature", "properties": { "Name": "NTUC FAIRPRICE CO-OPERATIVE LTD", "Address": "Blk 612 PUNGGOL DRIVE" }, "geometry": { "type": "Point", "coordinates": [ 103.908665607625537, 1.40461002768909 ] } },
{ "type": "Feature", "properties": { "Name": "NTUC FAIRPRICE CO-OPERATIVE LTD", "Address": "Blk 476 UPPER SERANGOON VIEW" }, "geometry": { "type": "Point", "coordinates": [ 103.903712868235189, 1.377430063518081 ] } },
{ "type": "Feature", "properties": { "Name": "U STARS SUPERMARKET PTE. LTD.", "Address": "Blk 878C TAMPINES AVENUE 8" }, "geometry": { "type": "Point", "coordinates": [ 103.929363838845603, 1.351264106998253 ] } },
{ "type": "Feature", "properties": { "Name": "NTUC FAIRPRICE CO-OPERATIVE LTD", "Address": "Blk 872C TAMPINES STREET 86" }, "geometry": { "type": "Point", "coordinates": [ 103.931623638517436, 1.355242898853485 ] } },
{ "type": "Feature", "properties": { "Name": "NTUC FAIRPRICE CO-OPERATIVE LTD", "Address": "Blk 900 SOUTH WOODLANDS DRIVE" }, "geometry": { "type": "Point", "coordinates": [ 103.786619615680024, 1.435077893976064 ] } },
{ "type": "Feature", "properties": { "Name": "NTUC FAIRPRICE CO-OPERATIVE LTD", "Address": "Blk 511 CANBERRA ROAD" }, "geometry": { "type": "Point", "coordinates": [ 103.81954334800767, 1.453845188007289 ] } },
{ "type": "Feature", "properties": { "Name": "NTUC FAIRPRICE CO-OPERATIVE LTD", "Address": "Blk 355 SEMBAWANG WAY" }, "geometry": { "type": "Point", "coordinates": [ 103.818641141781796, 1.449566476120961 ] } },
{ "type": "Feature", "properties": { "Name": "NTUC FAIRPRICE CO-OPERATIVE LTD", "Address": "Blk 36 HOLLAND DRIVE" }, "geometry": { "type": "Point", "coordinates": [ 103.792547486779782, 1.309182111948201 ] } },
{ "type": "Feature", "properties": { "Name": "NTUC FAIRPRICE CO-OPERATIVE LTD", "Address": "Blk 570B WOODLANDS AVENUE 1" }, "geometry": { "type": "Point", "coordinates": [ 103.79045408582823, 1.43106395014799 ] } },
{ "type": "Feature", "properties": { "Name": "NTUC FAIRPRICE CO-OPERATIVE LTD", "Address": "Blk 17 PETIR ROAD" }, "geometry": { "type": "Point", "coordinates": [ 103.762741183478497, 1.378349713513199 ] } },
{ "type": "Feature", "properties": { "Name": "CUTECH GREEN VENTURES PTE. LTD.", "Address": "Blk 10 WOODLANDS INDUSTRIAL PARK E1" }, "geometry": { "type": "Point", "coordinates": [ 103.795682402300997, 1.453343622229994 ] } },
{ "type": "Feature", "properties": { "Name": "NTUC FAIRPRICE CO-OPERATIVE LTD", "Address": "Blk 1 NORTHPOINT DRIVE" }, "geometry": { "type": "Point", "coordinates": [ 103.836142036926546, 1.427999957390893 ] } },
{ "type": "Feature", "properties": { "Name": "NTUC FAIRPRICE CO-OPERATIVE LTD", "Address": "Blk 676 WOODLANDS DRIVE 71" }, "geometry": { "type": "Point", "coordinates": [ 103.800701205040795, 1.439916079013366 ] } },
{ "type": "Feature", "properties": { "Name": "NTUC FAIRPRICE CO-OPERATIVE LTD", "Address": "Blk 29A GHIM MOH LINK" }, "geometry": { "type": "Point", "coordinates": [ 103.784598109774137, 1.30849288506215 ] } },
{ "type": "Feature", "properties": { "Name": "SHENG SIONG SUPERMARKET PTE LTD", "Address": "Blk 573 WOODLANDS DRIVE 16" }, "geometry": { "type": "Point", "coordinates": [ 103.798507625992926, 1.431098070683857 ] } },
{ "type": "Feature", "properties": { "Name": "NTUC FAIRPRICE CO-OPERATIVE LTD", "Address": "Blk 510 BISHAN STREET 13" }, "geometry": { "type": "Point", "coordinates": [ 103.849691986414925, 1.348888439138553 ] } },
{ "type": "Feature", "properties": { "Name": "NTUC FAIRPRICE CO-OPERATIVE LTD", "Address": "Blk 682 HOUGANG AVENUE 4" }, "geometry": { "type": "Point", "coordinates": [ 103.885748863319932, 1.37361830003658 ] } },
{ "type": "Feature", "properties": { "Name": "NTUC FAIRPRICE CO-OPERATIVE LTD", "Address": "Blk 202 HOUGANG STREET 21" }, "geometry": { "type": "Point", "coordinates": [ 103.884038461278706, 1.357575580652451 ] } },
{ "type": "Feature", "properties": { "Name": "NTUC FAIRPRICE CO-OPERATIVE LTD", "Address": "Blk 745 BEDOK RESERVOIR ROAD" }, "geometry": { "type": "Point", "coordinates": [ 103.921774737840707, 1.337404713211976 ] } },
{ "type": "Feature", "properties": { "Name": "SONG FISH DEALER PTE LTD", "Address": "Blk 750 CHAI CHEE ROAD" }, "geometry": { "type": "Point", "coordinates": [ 103.922102964584781, 1.323651730990941 ] } },
{ "type": "Feature", "properties": { "Name": "U STARS PTE. LTD.", "Address": "Blk 507 YISHUN AVENUE 4" }, "geometry": { "type": "Point", "coordinates": [ 103.839830390769208, 1.415176337725961 ] } },
{ "type": "Feature", "properties": { "Name": "SHENG SIONG SUPERMARKET PTE LTD", "Address": "Blk 88 TANGLIN HALT ROAD" }, "geometry": { "type": "Point", "coordinates": [ 103.798021747972996, 1.302038029100647 ] } },
{ "type": "Feature", "properties": { "Name": "L M MEAT PTE. LTD.", "Address": "Blk 750 CHAI CHEE ROAD" }, "geometry": { "type": "Point", "coordinates": [ 103.922102964584781, 1.323651730990941 ] } },
{ "type": "Feature", "properties": { "Name": "SHENG SIONG SUPERMARKET PTE LTD", "Address": "Blk 258 PASIR RIS STREET 21" }, "geometry": { "type": "Point", "coordinates": [ 103.964617780128165, 1.367000535120909 ] } },
{ "type": "Feature", "properties": { "Name": "OH BENG GUAN", "Address": "Blk 395A BUKIT BATOK WEST AVENUE 5" }, "geometry": { "type": "Point", "coordinates": [ 103.751896006131304, 1.363938214778837 ] } },
{ "type": "Feature", "properties": { "Name": "IROHA INTERNATIONAL PTE. LTD.", "Address": "Blk 133 NEW BRIDGE ROAD" }, "geometry": { "type": "Point", "coordinates": [ 103.84469709078607, 1.284998838566604 ] } },
{ "type": "Feature", "properties": { "Name": "COLD STORAGE SINGAPORE (1983) PTE LTD", "Address": "Blk 316B ANG MO KIO STREET 31" }, "geometry": { "type": "Point", "coordinates": [ 103.847677043507872, 1.364625400111387 ] } },
{ "type": "Feature", "properties": { "Name": "CULINA PTE LTD", "Address": "Blk 8 DEMPSEY ROAD" }, "geometry": { "type": "Point", "coordinates": [ 103.809526142546957, 1.304175118941884 ] } },
{ "type": "Feature", "properties": { "Name": "COLD STORAGE SINGAPORE (1983) PTE LTD", "Address": "Blk 181 LORONG 4 TOA PAYOH" }, "geometry": { "type": "Point", "coordinates": [ 103.850977864799702, 1.333622320330389 ] } },
{ "type": "Feature", "properties": { "Name": "COLD STORAGE SINGAPORE (1983) PTE LTD", "Address": "Blk 86 REDHILL CLOSE" }, "geometry": { "type": "Point", "coordinates": [ 103.818673599931486, 1.286920064357126 ] } },
{ "type": "Feature", "properties": { "Name": "SHENG SIONG SUPERMARKET PTE LTD", "Address": "Blk 209 NEW UPPER CHANGI ROAD" }, "geometry": { "type": "Point", "coordinates": [ 103.931068836576188, 1.324635732395937 ] } },
{ "type": "Feature", "properties": { "Name": "PRIME SUPERMARKET LIMITED", "Address": "Blk 678 WOODLANDS AVENUE 6" }, "geometry": { "type": "Point", "coordinates": [ 103.801293114430905, 1.439983654274945 ] } },
{ "type": "Feature", "properties": { "Name": "NG TOH TET", "Address": "Blk 442 JURONG WEST AVENUE 1" }, "geometry": { "type": "Point", "coordinates": [ 103.719496485078224, 1.351518471786464 ] } },
{ "type": "Feature", "properties": { "Name": "HAO MART PTE. LTD.", "Address": "Blk 120 POTONG PASIR AVENUE 1" }, "geometry": { "type": "Point", "coordinates": [ 103.863387984977393, 1.33545352734013 ] } },
{ "type": "Feature", "properties": { "Name": "CHUA & NG PTE. LTD.", "Address": "Blk 632 BEDOK RESERVOIR ROAD" }, "geometry": { "type": "Point", "coordinates": [ 103.914145078085909, 1.332050946193328 ] } },
{ "type": "Feature", "properties": { "Name": "LOCH GROCER PTE. LTD.", "Address": "Blk 503 JURONG WEST AVENUE 1" }, "geometry": { "type": "Point", "coordinates": [ 103.717704811503992, 1.349955410234508 ] } },
{ "type": "Feature", "properties": { "Name": "ARCHANA SUPERMARKET PTE. LTD.", "Address": "Blk 1 JALAN PAPAN" }, "geometry": { "type": "Point", "coordinates": [ 103.726722841968382, 1.32048426083035 ] } },
{ "type": "Feature", "properties": { "Name": "COLD STORAGE SINGAPORE (1983) PTE LTD", "Address": "Blk 468B ADMIRALTY DRIVE" }, "geometry": { "type": "Point", "coordinates": [ 103.814110907259234, 1.450008612487052 ] } },
{ "type": "Feature", "properties": { "Name": "COLD STORAGE SINGAPORE (1983) PTE LTD", "Address": "Blk 144 UPPER BUKIT TIMAH ROAD" }, "geometry": { "type": "Point", "coordinates": [ 103.776250537642014, 1.342392844797033 ] } },
{ "type": "Feature", "properties": { "Name": "PRIME SUPERMARKET LIMITED", "Address": "Blk 763 JURONG WEST STREET 75" }, "geometry": { "type": "Point", "coordinates": [ 103.698292007732007, 1.348726432682638 ] } },
{ "type": "Feature", "properties": { "Name": "SHENG SIONG SUPERMARKET PTE LTD", "Address": "Blk 154A BUKIT BATOK WEST AVENUE 8" }, "geometry": { "type": "Point", "coordinates": [ 103.743698115503449, 1.347371799524519 ] } },
{ "type": "Feature", "properties": { "Name": "LITTLE FARMS PTE. LTD.", "Address": "Blk 7 WALLICH STREET" }, "geometry": { "type": "Point", "coordinates": [ 103.845155396185902, 1.276724932049135 ] } },
{ "type": "Feature", "properties": { "Name": "SHENG SIONG SUPERMARKET PTE LTD", "Address": "Blk 25 GHIM MOH LINK" }, "geometry": { "type": "Point", "coordinates": [ 103.786049389035043, 1.308118869690548 ] } },
{ "type": "Feature", "properties": { "Name": "SHENG SIONG SUPERMARKET PTE LTD", "Address": "Blk 2 ANG MO KIO DRIVE" }, "geometry": { "type": "Point", "coordinates": [ 103.85641198214789, 1.377892030828576 ] } },
{ "type": "Feature", "properties": { "Name": "ISYMI PTE LTD", "Address": "Blk 183 JALAN PELIKAT" }, "geometry": { "type": "Point", "coordinates": [ 103.887857189652266, 1.355309033395086 ] } },
{ "type": "Feature", "properties": { "Name": "TOH GUAN MINI MART PTE LTD", "Address": "Blk 19 TOH GUAN ROAD EAST" }, "geometry": { "type": "Point", "coordinates": [ 103.753536116976576, 1.338326578689209 ] } },
{ "type": "Feature", "properties": { "Name": "KADER HASNA MARICAN", "Address": "Blk 17 KIAN TECK LANE" }, "geometry": { "type": "Point", "coordinates": [ 103.695248113879046, 1.333145775373786 ] } },
{ "type": "Feature", "properties": { "Name": "TANG KER AN, TIMOTHY", "Address": "Blk 18 BEDOK SOUTH ROAD" }, "geometry": { "type": "Point", "coordinates": [ 103.93473422951503, 1.320625058909282 ] } },
{ "type": "Feature", "properties": { "Name": "COLD STORAGE SINGAPORE (1983) PTE LTD", "Address": "Blk 256 BANGKIT ROAD" }, "geometry": { "type": "Point", "coordinates": [ 103.772937487063416, 1.379047755695646 ] } },
{ "type": "Feature", "properties": { "Name": "MM SUNDRY SHOP PTE.LTD.", "Address": "Blk 27 WOODLANDS SECTOR 1" }, "geometry": { "type": "Point", "coordinates": [ 103.804476738375428, 1.45464654784637 ] } },
{ "type": "Feature", "properties": { "Name": "AL MARCHE PTE LTD", "Address": "Blk 2 MARINA BOULEVARD" }, "geometry": { "type": "Point", "coordinates": [ 103.852658565644205, 1.280769443101052 ] } },
{ "type": "Feature", "properties": { "Name": "COLD STORAGE SINGAPORE (1983) PTE LTD", "Address": "Blk 1 FIFTH AVENUE" }, "geometry": { "type": "Point", "coordinates": [ 103.795692359114852, 1.330817401779298 ] } },
{ "type": "Feature", "properties": { "Name": "THE ALASKA GUYS PTE. LTD.", "Address": "Blk 201 TELOK KURAU ROAD" }, "geometry": { "type": "Point", "coordinates": [ 103.91118598811299, 1.312122476771038 ] } },
{ "type": "Feature", "properties": { "Name": "COLD STORAGE SINGAPORE (1983) PTE LTD", "Address": "Blk 70 WOODLANDS AVENUE 7" }, "geometry": { "type": "Point", "coordinates": [ 103.800977588528212, 1.440538149476388 ] } },
{ "type": "Feature", "properties": { "Name": "SHENG SIONG SUPERMARKET PTE LTD", "Address": "Blk 547 SEGAR ROAD" }, "geometry": { "type": "Point", "coordinates": [ 103.769575387873232, 1.388240215263333 ] } },
{ "type": "Feature", "properties": { "Name": "SHENG SIONG SUPERMARKET PTE LTD", "Address": "Blk 473 FERNVALE STREET" }, "geometry": { "type": "Point", "coordinates": [ 103.881698809437296, 1.397798740043783 ] } },
{ "type": "Feature", "properties": { "Name": "COLD STORAGE SINGAPORE (1983) PTE LTD", "Address": "Blk 622D PUNGGOL CENTRAL" }, "geometry": { "type": "Point", "coordinates": [ 103.910536926949291, 1.400531142553593 ] } },
{ "type": "Feature", "properties": { "Name": "COLD STORAGE SINGAPORE (1983) PTE LTD", "Address": "Blk 26 JALAN MEMBINA" }, "geometry": { "type": "Point", "coordinates": [ 103.825595755973922, 1.282634377491018 ] } },
{ "type": "Feature", "properties": { "Name": "SHENG SIONG SUPERMARKET PTE LTD", "Address": "Blk 446 FAJAR ROAD" }, "geometry": { "type": "Point", "coordinates": [ 103.771029612233463, 1.384005819390643 ] } },
{ "type": "Feature", "properties": { "Name": "COLD STORAGE SINGAPORE (1983) PTE LTD", "Address": "Blk 475 CHOA CHU KANG AVENUE 3" }, "geometry": { "type": "Point", "coordinates": [ 103.738931803939479, 1.378056137654438 ] } },
{ "type": "Feature", "properties": { "Name": "U STARS PTE. LTD.", "Address": "Blk 810 CHOA CHU KANG AVENUE 7" }, "geometry": { "type": "Point", "coordinates": [ 103.746160084443858, 1.374057967483352 ] } },
{ "type": "Feature", "properties": { "Name": "FORTUNE SUPERMARKET PTE. LTD.", "Address": "Blk 780 WOODLANDS CRESCENT" }, "geometry": { "type": "Point", "coordinates": [ 103.801057153448838, 1.448341542045648 ] } },
{ "type": "Feature", "properties": { "Name": "HAO MART PTE. LTD.", "Address": "Blk 505 CANBERRA LINK" }, "geometry": { "type": "Point", "coordinates": [ 103.822534722304937, 1.450262017121547 ] } },
{ "type": "Feature", "properties": { "Name": "U STARS SUPERMARKET PTE. LTD.", "Address": "Blk 218 SUMANG WALK" }, "geometry": { "type": "Point", "coordinates": [ 103.895387026653637, 1.403227119606492 ] } },
{ "type": "Feature", "properties": { "Name": "SHENG SIONG SUPERMARKET PTE LTD", "Address": "Blk 301 PUNGGOL CENTRAL" }, "geometry": { "type": "Point", "coordinates": [ 103.906138013325332, 1.403719393660884 ] } },
{ "type": "Feature", "properties": { "Name": "ANG MO SUPERMARKET PTE LTD", "Address": "Blk 639 PUNGGOL DRIVE" }, "geometry": { "type": "Point", "coordinates": [ 103.916054504160783, 1.399461172969697 ] } },
{ "type": "Feature", "properties": { "Name": "COLD STORAGE SINGAPORE (1983) PTE LTD", "Address": "Blk 671 EDGEFIELD PLAINS" }, "geometry": { "type": "Point", "coordinates": [ 103.911991279241789, 1.405660475420941 ] } },
{ "type": "Feature", "properties": { "Name": "SWISS BUTCHERY PTE LTD", "Address": "Blk 56 TANGLIN ROAD" }, "geometry": { "type": "Point", "coordinates": [ 103.822962948155549, 1.305611671162241 ] } },
{ "type": "Feature", "properties": { "Name": "COLD STORAGE SINGAPORE (1983) PTE LTD", "Address": "Blk 501 BUKIT TIMAH ROAD" }, "geometry": { "type": "Point", "coordinates": [ 103.814245545297254, 1.322573175939222 ] } },
{ "type": "Feature", "properties": { "Name": "CP MANAGEMENT SERVICES PRIVATE LIMITED", "Address": "Blk 80 TANAH MERAH COAST ROAD" }, "geometry": { "type": "Point", "coordinates": [ 104.003578458883979, 1.326743944782751 ] } },
{ "type": "Feature", "properties": { "Name": "VINAYAK TRADERS PTE. LTD.", "Address": "Blk 27 PENJURU WALK" }, "geometry": { "type": "Point", "coordinates": [ 103.732882480414759, 1.319238113778556 ] } },
{ "type": "Feature", "properties": { "Name": "CAVEMEN PTE. LTD.", "Address": "Blk 1 JALAN DUSUN" }, "geometry": { "type": "Point", "coordinates": [ 103.843674239784292, 1.326965408687898 ] } },
{ "type": "Feature", "properties": { "Name": "COLD STORAGE SINGAPORE (1983) PTE LTD", "Address": "Blk 442 ORCHARD ROAD" }, "geometry": { "type": "Point", "coordinates": [ 103.828164400668555, 1.307668615224418 ] } },
{ "type": "Feature", "properties": { "Name": "PRIME SUPERMARKET (1996) PTE LTD", "Address": "Blk 50 NANYANG AVENUE" }, "geometry": { "type": "Point", "coordinates": [ 103.678818137299828, 1.346764655418509 ] } },
{ "type": "Feature", "properties": { "Name": "COLD STORAGE SINGAPORE (1983) PTE LTD", "Address": "Blk 2 FIRST STREET" }, "geometry": { "type": "Point", "coordinates": [ 103.923657873439282, 1.312753298888947 ] } },
{ "type": "Feature", "properties": { "Name": "MOHAMAD DAMAR HULAN BIN OSMAN", "Address": "Blk 212 CHANGI ROAD" }, "geometry": { "type": "Point", "coordinates": [ 103.903965194578859, 1.317149736296552 ] } },
{ "type": "Feature", "properties": { "Name": "THE FOODSPREE PTE LTD", "Address": "Blk 162 JOO CHIAT ROAD" }, "geometry": { "type": "Point", "coordinates": [ 103.899711254653667, 1.312904459664822 ] } },
{ "type": "Feature", "properties": { "Name": "HAO MART PTE. LTD.", "Address": "Blk 15 SIGLAP ROAD" }, "geometry": { "type": "Point", "coordinates": [ 103.923769733617178, 1.307060675053333 ] } },
{ "type": "Feature", "properties": { "Name": "COLD STORAGE SINGAPORE (1983) PTE LTD", "Address": "Blk 348 BEDOK ROAD" }, "geometry": { "type": "Point", "coordinates": [ 103.948257061052246, 1.331426855923584 ] } },
{ "type": "Feature", "properties": { "Name": "SHENG SIONG SUPERMARKET PTE LTD", "Address": "Blk 739A BEDOK RESERVOIR ROAD" }, "geometry": { "type": "Point", "coordinates": [ 103.92330393859919, 1.338242025447844 ] } },
{ "type": "Feature", "properties": { "Name": "COLD STORAGE SINGAPORE (1983) PTE LTD", "Address": "Blk 440 PASIR RIS DRIVE 4" }, "geometry": { "type": "Point", "coordinates": [ 103.958647646172651, 1.368998006014491 ] } },
{ "type": "Feature", "properties": { "Name": "SHENG SIONG SUPERMARKET PTE LTD", "Address": "Blk 527D PASIR RIS STREET 51" }, "geometry": { "type": "Point", "coordinates": [ 103.947922430562528, 1.369686248469867 ] } },
{ "type": "Feature", "properties": { "Name": "COLD STORAGE SINGAPORE (1983) PTE LTD", "Address": "Blk 982 BUANGKOK CRESCENT" }, "geometry": { "type": "Point", "coordinates": [ 103.879309100326651, 1.380850346978935 ] } },
{ "type": "Feature", "properties": { "Name": "HONG HENG SENG", "Address": "Blk 5 BANDA STREET" }, "geometry": { "type": "Point", "coordinates": [ 103.843437329466227, 1.281197377649731 ] } },
{ "type": "Feature", "properties": { "Name": "U STARS SUPERMARKET PTE. LTD.", "Address": "Blk 345 CLEMENTI AVENUE 5" }, "geometry": { "type": "Point", "coordinates": [ 103.769076732945834, 1.317702819136787 ] } },
{ "type": "Feature", "properties": { "Name": "KEK HONG HENG", "Address": "Blk 23 PENJURU WALK" }, "geometry": { "type": "Point", "coordinates": [ 103.731948910120821, 1.318009812927326 ] } },
{ "type": "Feature", "properties": { "Name": "LIM KING CHEW", "Address": "Blk 6 HOUGANG AVENUE 3" }, "geometry": { "type": "Point", "coordinates": [ 103.893980506641384, 1.362714462079729 ] } },
{ "type": "Feature", "properties": { "Name": "PRIME SUPERMARKET (1996) PTE LTD", "Address": "Blk 18 BEDOK SOUTH ROAD" }, "geometry": { "type": "Point", "coordinates": [ 103.93473422951503, 1.320625058909282 ] } },
{ "type": "Feature", "properties": { "Name": "SHENG SIONG SUPERMARKET PTE LTD", "Address": "Blk 18 TECK WHYE LANE" }, "geometry": { "type": "Point", "coordinates": [ 103.754071407341314, 1.378297682319824 ] } },
{ "type": "Feature", "properties": { "Name": "COLD STORAGE SINGAPORE (1983) PTE LTD", "Address": "Blk 118 ALJUNIED AVENUE 2" }, "geometry": { "type": "Point", "coordinates": [ 103.887363072165272, 1.320000409151662 ] } },
{ "type": "Feature", "properties": { "Name": "SHENG SIONG SUPERMARKET PTE LTD", "Address": "Blk 4 LORONG 7 TOA PAYOH" }, "geometry": { "type": "Point", "coordinates": [ 103.855541071678374, 1.33904479825405 ] } },
{ "type": "Feature", "properties": { "Name": "MCP FAIRMART PTE LTD", "Address": "Blk 89 BEDOK NORTH STREET 4" }, "geometry": { "type": "Point", "coordinates": [ 103.938051292003209, 1.33233467983475 ] } },
{ "type": "Feature", "properties": { "Name": "ONE EIGHT SHOP PTE. LTD.", "Address": "Blk 104 JURONG EAST STREET 13" }, "geometry": { "type": "Point", "coordinates": [ 103.737623311664507, 1.33658465251198 ] } },
{ "type": "Feature", "properties": { "Name": "COLD STORAGE SINGAPORE (1983) PTE LTD", "Address": "Blk 376 BUKIT BATOK STREET 31" }, "geometry": { "type": "Point", "coordinates": [ 103.749579874347575, 1.358317047012245 ] } },
{ "type": "Feature", "properties": { "Name": "COLD STORAGE SINGAPORE (1983) PTE LTD", "Address": "Blk 509 BEDOK NORTH STREET 3" }, "geometry": { "type": "Point", "coordinates": [ 103.931091390123086, 1.333066481727192 ] } },
{ "type": "Feature", "properties": { "Name": "HAO MART PTE. LTD.", "Address": "Blk 487B TAMPINES STREET 45" }, "geometry": { "type": "Point", "coordinates": [ 103.958247655538088, 1.359985670058524 ] } },
{ "type": "Feature", "properties": { "Name": "COLD STORAGE SINGAPORE (1983) PTE LTD", "Address": "Blk 102 YISHUN AVENUE 5" }, "geometry": { "type": "Point", "coordinates": [ 103.828762985205856, 1.430618284967387 ] } },
{ "type": "Feature", "properties": { "Name": "COLD STORAGE SINGAPORE (1983) PTE LTD", "Address": "Blk 8 TELOK BLANGAH CRESCENT" }, "geometry": { "type": "Point", "coordinates": [ 103.819341304520378, 1.277795394350079 ] } },
{ "type": "Feature", "properties": { "Name": "COLD STORAGE SINGAPORE (1983) PTE LTD", "Address": "Blk 21 GHIM MOH ROAD" }, "geometry": { "type": "Point", "coordinates": [ 103.788532895745902, 1.310081185652995 ] } },
{ "type": "Feature", "properties": { "Name": "PRIME SUPERMARKET LIMITED", "Address": "Blk 159 BUKIT BATOK STREET 11" }, "geometry": { "type": "Point", "coordinates": [ 103.742708640389139, 1.348575367161904 ] } },
{ "type": "Feature", "properties": { "Name": "SHENG SIONG SUPERMARKET PTE LTD", "Address": "Blk 845 YISHUN STREET 81" }, "geometry": { "type": "Point", "coordinates": [ 103.835000770935224, 1.416018798362664 ] } },
{ "type": "Feature", "properties": { "Name": "COLD STORAGE SINGAPORE (1983) PTE LTD", "Address": "Blk 306 UBI AVENUE 1" }, "geometry": { "type": "Point", "coordinates": [ 103.901929745106045, 1.329872196975179 ] } },
{ "type": "Feature", "properties": { "Name": "ANG MO SUPERMARKET PTE LTD", "Address": "Blk 642 HOUGANG AVENUE 8" }, "geometry": { "type": "Point", "coordinates": [ 103.879938988611826, 1.371703425040014 ] } },
{ "type": "Feature", "properties": { "Name": "EN FROZEN PTE LTD", "Address": "Blk 1 GEYLANG SERAI" }, "geometry": { "type": "Point", "coordinates": [ 103.897977417519684, 1.316725151665206 ] } },
{ "type": "Feature", "properties": { "Name": "LAURELS FOODS SUPPLIERS PTE LTD", "Address": "Blk 2 PANDAN VALLEY" }, "geometry": { "type": "Point", "coordinates": [ 103.778972465007669, 1.320441711746238 ] } },
{ "type": "Feature", "properties": { "Name": "SHENG SIONG SUPERMARKET PTE LTD", "Address": "Blk 925 YISHUN CENTRAL 1" }, "geometry": { "type": "Point", "coordinates": [ 103.837125285904037, 1.427505478763889 ] } },
{ "type": "Feature", "properties": { "Name": "SHENG SIONG SUPERMARKET PTE LTD", "Address": "Blk 301 WOODLANDS STREET 31" }, "geometry": { "type": "Point", "coordinates": [ 103.773515667644745, 1.431505268687373 ] } },
{ "type": "Feature", "properties": { "Name": "TEO BOBBY", "Address": "Blk 253 SERANGOON CENTRAL DRIVE" }, "geometry": { "type": "Point", "coordinates": [ 103.870756830652269, 1.353671028298079 ] } },
{ "type": "Feature", "properties": { "Name": "SHAHUL HAMEED S\/O ABDUSALAM", "Address": "Blk 280 TAMPINES STREET 22" }, "geometry": { "type": "Point", "coordinates": [ 103.951702778283021, 1.347535189894424 ] } },
{ "type": "Feature", "properties": { "Name": "COLD STORAGE SINGAPORE (1983) PTE LTD", "Address": "Blk 284 BUKIT BATOK EAST AVENUE 3" }, "geometry": { "type": "Point", "coordinates": [ 103.757276703166966, 1.346699050439509 ] } },
{ "type": "Feature", "properties": { "Name": "COLD STORAGE SINGAPORE (1983) PTE LTD", "Address": "Blk 266 SERANGOON CENTRAL DRIVE" }, "geometry": { "type": "Point", "coordinates": [ 103.871472859033659, 1.353231638051482 ] } },
{ "type": "Feature", "properties": { "Name": "COLD STORAGE SINGAPORE (1983) PTE LTD", "Address": "Blk 56 MARINE TERRACE" }, "geometry": { "type": "Point", "coordinates": [ 103.915376080602698, 1.305605702628974 ] } },
{ "type": "Feature", "properties": { "Name": "SHENG SIONG SUPERMARKET PTE LTD", "Address": "Blk 18B CIRCUIT ROAD" }, "geometry": { "type": "Point", "coordinates": [ 103.888248444761118, 1.32918105553935 ] } },
{ "type": "Feature", "properties": { "Name": "COLD STORAGE SINGAPORE (1983) PTE LTD", "Address": "Blk 293 YISHUN STREET 22" }, "geometry": { "type": "Point", "coordinates": [ 103.837605239087637, 1.436114248105054 ] } },
{ "type": "Feature", "properties": { "Name": "PRIME SUPERMARKET (1996) PTE LTD", "Address": "Blk 142 TECK WHYE LANE" }, "geometry": { "type": "Point", "coordinates": [ 103.751954418498002, 1.380790491518951 ] } },
{ "type": "Feature", "properties": { "Name": "TAN CHUAN BOON", "Address": "Blk 309 HOUGANG AVENUE 5" }, "geometry": { "type": "Point", "coordinates": [ 103.895144898126418, 1.366209427589035 ] } },
{ "type": "Feature", "properties": { "Name": "SHENG SIONG SUPERMARKET PTE LTD", "Address": "Blk 108 MCNAIR ROAD" }, "geometry": { "type": "Point", "coordinates": [ 103.859382727106691, 1.321619041100487 ] } },
{ "type": "Feature", "properties": { "Name": "PRIME SUPERMARKET LIMITED", "Address": "Blk 962 JURONG WEST STREET 91" }, "geometry": { "type": "Point", "coordinates": [ 103.691483120671492, 1.342017834329974 ] } },
{ "type": "Feature", "properties": { "Name": "MCP FAIRMART PTE LTD", "Address": "Blk 135 JURONG GATEWAY ROAD" }, "geometry": { "type": "Point", "coordinates": [ 103.739371389065539, 1.333753432895276 ] } },
{ "type": "Feature", "properties": { "Name": "SHENG SIONG SUPERMARKET PTE LTD", "Address": "Blk 115 BEDOK NORTH ROAD" }, "geometry": { "type": "Point", "coordinates": [ 103.936865411477939, 1.331433688004088 ] } },
{ "type": "Feature", "properties": { "Name": "HAO MART PTE. LTD.", "Address": "Blk 74 WHAMPOA DRIVE" }, "geometry": { "type": "Point", "coordinates": [ 103.857752875464712, 1.324715806376767 ] } },
{ "type": "Feature", "properties": { "Name": "COLD STORAGE SINGAPORE (1983) PTE LTD", "Address": "Blk 1 COVE AVENUE" }, "geometry": { "type": "Point", "coordinates": [ 103.839555012607903, 1.247150406312516 ] } },
{ "type": "Feature", "properties": { "Name": "COLD STORAGE SINGAPORE (1983) PTE LTD", "Address": "Blk 1 MARITIME SQUARE" }, "geometry": { "type": "Point", "coordinates": [ 103.818625588158923, 1.262063364506458 ] } },
{ "type": "Feature", "properties": { "Name": "U STARS PTE. LTD.", "Address": "Blk 817 KEAT HONG LINK" }, "geometry": { "type": "Point", "coordinates": [ 103.749700044104031, 1.377543842784085 ] } },
{ "type": "Feature", "properties": { "Name": "GURU'S MARKETING PTE. LTD.", "Address": "Blk 27 PENJURU WALK" }, "geometry": { "type": "Point", "coordinates": [ 103.732882480414759, 1.319238113778556 ] } },
{ "type": "Feature", "properties": { "Name": "SHENG SIONG SUPERMARKET PTE LTD", "Address": "Blk 420A CLEMENTI AVENUE 1" }, "geometry": { "type": "Point", "coordinates": [ 103.768637301316076, 1.309733314089154 ] } },
{ "type": "Feature", "properties": { "Name": "COLD STORAGE SINGAPORE (1983) PTE LTD", "Address": "Blk 101 CLEMENTI ROAD" }, "geometry": { "type": "Point", "coordinates": [ 103.769369393441949, 1.301761307457254 ] } },
{ "type": "Feature", "properties": { "Name": "SHENG SIONG SUPERMARKET PTE LTD", "Address": "Blk 85 DAWSON ROAD" }, "geometry": { "type": "Point", "coordinates": [ 103.809758594157657, 1.295319668550144 ] } },
{ "type": "Feature", "properties": { "Name": "COLD STORAGE SINGAPORE (1983) PTE LTD", "Address": "Blk 391A ORCHARD ROAD" }, "geometry": { "type": "Point", "coordinates": [ 103.834676134659716, 1.302424179095318 ] } },
{ "type": "Feature", "properties": { "Name": "COLD STORAGE SINGAPORE (1983) PTE LTD", "Address": "Blk 260 KIM KEAT AVENUE" }, "geometry": { "type": "Point", "coordinates": [ 103.857378075733166, 1.332112773845757 ] } },
{ "type": "Feature", "properties": { "Name": "NTUC FAIRPRICE CO-OPERATIVE LTD", "Address": "Blk 170 STIRLING ROAD" }, "geometry": { "type": "Point", "coordinates": [ 103.803107635391797, 1.290909183471142 ] } },
{ "type": "Feature", "properties": { "Name": "NTUC FAIRPRICE CO-OPERATIVE LTD", "Address": "Blk 133 NEW BRIDGE ROAD" }, "geometry": { "type": "Point", "coordinates": [ 103.84469709078607, 1.284998838566604 ] } },
{ "type": "Feature", "properties": { "Name": "TEO BOBBY", "Address": "Blk 29 CHAI CHEE AVENUE" }, "geometry": { "type": "Point", "coordinates": [ 103.92437023588657, 1.324760406947875 ] } },
{ "type": "Feature", "properties": { "Name": "ARCHANA PROVISION STORES PTE. LTD", "Address": "Blk 27 PENJURU WALK" }, "geometry": { "type": "Point", "coordinates": [ 103.732882480414759, 1.319238113778556 ] } },
{ "type": "Feature", "properties": { "Name": "KINGSMART PTE. LTD.", "Address": "Blk 30 PENJURU PLACE" }, "geometry": { "type": "Point", "coordinates": [ 103.732527150837541, 1.316210423137517 ] } },
{ "type": "Feature", "properties": { "Name": "AP HOUSE PTE. LTD.", "Address": "Blk 12 MARINA VIEW" }, "geometry": { "type": "Point", "coordinates": [ 103.850795182001988, 1.278307303204584 ] } },
{ "type": "Feature", "properties": { "Name": "HAO MART PTE. LTD.", "Address": "Blk 54 BAYSHORE ROAD" }, "geometry": { "type": "Point", "coordinates": [ 103.936894516323235, 1.311795449790885 ] } },
{ "type": "Feature", "properties": { "Name": "COLD STORAGE SINGAPORE (1983) PTE LTD", "Address": "Blk 20 EASTWOOD ROAD" }, "geometry": { "type": "Point", "coordinates": [ 103.955419467870485, 1.321447690853971 ] } },
{ "type": "Feature", "properties": { "Name": "U STARS SUPERMARKET PTE. LTD.", "Address": "Blk 330 ANCHORVALE STREET" }, "geometry": { "type": "Point", "coordinates": [ 103.889246757275188, 1.396849794470228 ] } },
{ "type": "Feature", "properties": { "Name": "U STARS SUPERMARKET PTE. LTD.", "Address": "Blk 215C COMPASSVALE DRIVE" }, "geometry": { "type": "Point", "coordinates": [ 103.892787164080787, 1.389770253659842 ] } },
{ "type": "Feature", "properties": { "Name": "PRIME SUPERMARKET (1996) PTE LTD", "Address": "Blk 542B SERANGOON NORTH AVENUE 3" }, "geometry": { "type": "Point", "coordinates": [ 103.871416983338392, 1.373683928792574 ] } },
{ "type": "Feature", "properties": { "Name": "SHENG SIONG SUPERMARKET PTE LTD", "Address": "Blk 200 UPPER THOMSON ROAD" }, "geometry": { "type": "Point", "coordinates": [ 103.83605365408377, 1.351844982356678 ] } },
{ "type": "Feature", "properties": { "Name": "PHAN NEE INVESTMENTS (S) PTE LTD", "Address": "Blk 2C YISHUN AVENUE 7" }, "geometry": { "type": "Point", "coordinates": [ 103.837963232740876, 1.445183290128306 ] } },
{ "type": "Feature", "properties": { "Name": "COLD STORAGE SINGAPORE (1983) PTE LTD", "Address": "Blk 201 YISHUN AVENUE 2" }, "geometry": { "type": "Point", "coordinates": [ 103.832979911332686, 1.417383367440456 ] } },
{ "type": "Feature", "properties": { "Name": "GW TRADER PTE. LTD.", "Address": "Blk 8 SELETAR NORTH LINK" }, "geometry": { "type": "Point", "coordinates": [ 103.896447890318854, 1.418331379117346 ] } },
{ "type": "Feature", "properties": { "Name": "PHANG NEE ENTERPRISE PTE. LTD.", "Address": "Blk 2D JALAN PAPAN" }, "geometry": { "type": "Point", "coordinates": [ 103.729751339130871, 1.320787912944936 ] } },
{ "type": "Feature", "properties": { "Name": "SHENG SIONG SUPERMARKET PTE LTD", "Address": "Blk 312A SUMANG LINK" }, "geometry": { "type": "Point", "coordinates": [ 103.90037167895332, 1.410819262805588 ] } },
{ "type": "Feature", "properties": { "Name": "SHENG SIONG SUPERMARKET PTE LTD", "Address": "Blk 352 CLEMENTI AVENUE 2" }, "geometry": { "type": "Point", "coordinates": [ 103.771350566041846, 1.314278608956548 ] } },
{ "type": "Feature", "properties": { "Name": "SHENG SIONG SUPERMARKET PTE LTD", "Address": "Blk 544 JURONG WEST STREET 42" }, "geometry": { "type": "Point", "coordinates": [ 103.715759509790757, 1.35239357627613 ] } },
{ "type": "Feature", "properties": { "Name": "THNG SAIK MONG", "Address": "Blk 108 CLEMENTI STREET 11" }, "geometry": { "type": "Point", "coordinates": [ 103.770265909204369, 1.322123937659969 ] } },
{ "type": "Feature", "properties": { "Name": "HAO MART PTE. LTD.", "Address": "Blk 222 BISHAN STREET 23" }, "geometry": { "type": "Point", "coordinates": [ 103.848208491052546, 1.358035242509245 ] } },
{ "type": "Feature", "properties": { "Name": "COLD STORAGE SINGAPORE (1983) PTE LTD", "Address": "Blk 9 TAMPINES STREET 32" }, "geometry": { "type": "Point", "coordinates": [ 103.960042189055926, 1.354364936175164 ] } },
{ "type": "Feature", "properties": { "Name": "SHENG SIONG SUPERMARKET PTE LTD", "Address": "Blk 200 WOODLANDS INDUSTRIAL PARK E7" }, "geometry": { "type": "Point", "coordinates": [ 103.796846522878084, 1.450749729896402 ] } },
{ "type": "Feature", "properties": { "Name": "MAHOTA FOOD PTE. LTD.", "Address": "Blk 809 FRENCH ROAD" }, "geometry": { "type": "Point", "coordinates": [ 103.862005875542735, 1.308327009596676 ] } },
{ "type": "Feature", "properties": { "Name": "GURU'S MARKETING PTE. LTD.", "Address": "Blk 1 JALAN PAPAN" }, "geometry": { "type": "Point", "coordinates": [ 103.726722841968382, 1.32048426083035 ] } },
{ "type": "Feature", "properties": { "Name": "VINAYAK TRADERS PTE. LTD.", "Address": "Blk 1 JALAN PAPAN" }, "geometry": { "type": "Point", "coordinates": [ 103.726722841968382, 1.32048426083035 ] } },
{ "type": "Feature", "properties": { "Name": "COLD STORAGE SINGAPORE (1983) PTE LTD", "Address": "Blk 768 WOODLANDS AVENUE 6" }, "geometry": { "type": "Point", "coordinates": [ 103.798140996576933, 1.445622899347683 ] } },
{ "type": "Feature", "properties": { "Name": "CHENNAI TRADING & SUPERMART PTE. LTD.", "Address": "Blk 1 JALAN PAPAN" }, "geometry": { "type": "Point", "coordinates": [ 103.726722841968382, 1.32048426083035 ] } },
{ "type": "Feature", "properties": { "Name": "AJMAL TRADE MART PTE. LTD.", "Address": "Blk 23 MANDAI ESTATE" }, "geometry": { "type": "Point", "coordinates": [ 103.760561715530088, 1.40631204506305 ] } },
{ "type": "Feature", "properties": { "Name": "SHENG SIONG SUPERMARKET PTE LTD", "Address": "Blk 27 PENJURU WALK" }, "geometry": { "type": "Point", "coordinates": [ 103.732882480414759, 1.319238113778556 ] } },
{ "type": "Feature", "properties": { "Name": "SUN TRG & CON PTE LTD", "Address": "Blk 280 WOODLANDS INDUSTRIAL PARK E5" }, "geometry": { "type": "Point", "coordinates": [ 103.791095177078219, 1.451325053046333 ] } },
{ "type": "Feature", "properties": { "Name": "SHENG SIONG SUPERMARKET PTE LTD", "Address": "Blk 52 CHIN SWEE ROAD" }, "geometry": { "type": "Point", "coordinates": [ 103.841580116172679, 1.287082787673442 ] } },
{ "type": "Feature", "properties": { "Name": "SONG FISH DEALER PTE LTD", "Address": "Blk 133 NEW BRIDGE ROAD" }, "geometry": { "type": "Point", "coordinates": [ 103.84469709078607, 1.284998838566604 ] } },
{ "type": "Feature", "properties": { "Name": "NG CHAI SENG", "Address": "Blk 109 BUKIT PURMEI ROAD" }, "geometry": { "type": "Point", "coordinates": [ 103.825310769144039, 1.273929408176873 ] } },
{ "type": "Feature", "properties": { "Name": "PRIME SUPERMARKET LIMITED", "Address": "Blk 373 BUKIT BATOK STREET 31" }, "geometry": { "type": "Point", "coordinates": [ 103.750365807136021, 1.358946366533834 ] } },
{ "type": "Feature", "properties": { "Name": "ANG KEN CHUA", "Address": "Blk 410 CHOA CHU KANG AVENUE 3" }, "geometry": { "type": "Point", "coordinates": [ 103.741520112803585, 1.380627984796616 ] } },
{ "type": "Feature", "properties": { "Name": "HAO MART PTE. LTD.", "Address": "Blk 537 BEDOK NORTH STREET 3" }, "geometry": { "type": "Point", "coordinates": [ 103.924236464012267, 1.331773017026673 ] } },
{ "type": "Feature", "properties": { "Name": "COLD STORAGE SINGAPORE (1983) PTE LTD", "Address": "Blk 21 TAMPINES NORTH DRIVE 2" }, "geometry": { "type": "Point", "coordinates": [ 103.931999895836057, 1.372101695373185 ] } },
{ "type": "Feature", "properties": { "Name": "SARATHI STORES PTE LTD", "Address": "Blk 91 UPPER PAYA LEBAR ROAD" }, "geometry": { "type": "Point", "coordinates": [ 103.887004168997223, 1.337484921331292 ] } },
{ "type": "Feature", "properties": { "Name": "SIVAMANI MINIMART PTE LTD", "Address": "Blk 141 UPPER PAYA LEBAR ROAD" }, "geometry": { "type": "Point", "coordinates": [ 103.886109258392494, 1.338882303734699 ] } },
{ "type": "Feature", "properties": { "Name": "HAO MART PTE. LTD.", "Address": "Blk 16 JALAN KURAS" }, "geometry": { "type": "Point", "coordinates": [ 103.82963086710761, 1.373079466626139 ] } },
{ "type": "Feature", "properties": { "Name": "ALTERNATIVE SELECTION PTE. LTD.", "Address": "Blk 29 BINJAI PARK" }, "geometry": { "type": "Point", "coordinates": [ 103.786969223737813, 1.336614749021308 ] } },
{ "type": "Feature", "properties": { "Name": "TUAS SOUTH MINIMART PTE. LTD.", "Address": "Blk 6 TUAS SOUTH STREET 15" }, "geometry": { "type": "Point", "coordinates": [ 103.63614479504345, 1.270677123052828 ] } },
{ "type": "Feature", "properties": { "Name": "NPS IMPEX PTE. LTD", "Address": "Blk 21 TUAS VIEW SQUARE" }, "geometry": { "type": "Point", "coordinates": [ 103.627517906631866, 1.298951467397412 ] } },
{ "type": "Feature", "properties": { "Name": "COLD STORAGE SINGAPORE (1983) PTE LTD", "Address": "Blk 492 JURONG WEST STREET 41" }, "geometry": { "type": "Point", "coordinates": [ 103.724598702352395, 1.350112430129212 ] } },
{ "type": "Feature", "properties": { "Name": "SHENG SIONG SUPERMARKET PTE LTD", "Address": "Blk 7 JURONG WEST AVENUE 5" }, "geometry": { "type": "Point", "coordinates": [ 103.703415655686129, 1.348784894562801 ] } },
{ "type": "Feature", "properties": { "Name": "COLD STORAGE SINGAPORE (1983) PTE LTD", "Address": "Blk 464 UPPER BUKIT TIMAH ROAD" }, "geometry": { "type": "Point", "coordinates": [ 103.767542386989234, 1.360123705729794 ] } },
{ "type": "Feature", "properties": { "Name": "GOWRI'S GLOBAL MARKETING PTE. LTD.", "Address": "Blk 460 MANDAI ROAD" }, "geometry": { "type": "Point", "coordinates": [ 103.768395968109488, 1.410722194136363 ] } },
{ "type": "Feature", "properties": { "Name": "BALASUBRAMANIYAN KANNADASAN", "Address": "Blk 257 KRANJI ROAD" }, "geometry": { "type": "Point", "coordinates": [ 103.754008429831813, 1.435945359164303 ] } },
{ "type": "Feature", "properties": { "Name": "AJMAL TRADE MART PTE. LTD.", "Address": "Blk 12 KRANJI ROAD" }, "geometry": { "type": "Point", "coordinates": [ 103.759237297884837, 1.430693589383709 ] } },
{ "type": "Feature", "properties": { "Name": "DE ESPERTO MINIMART PTE. LTD.", "Address": "Blk 190 WOODLANDS INDUSTRIAL PARK E7" }, "geometry": { "type": "Point", "coordinates": [ 103.797853420672268, 1.451220636316187 ] } },
{ "type": "Feature", "properties": { "Name": "PHAN NEE TRADING LLP", "Address": "Blk 49 ADMIRALTY ROAD WEST" }, "geometry": { "type": "Point", "coordinates": [ 103.818111275278753, 1.461388537677535 ] } },
{ "type": "Feature", "properties": { "Name": "BANGLADESH SUPER MARKET PTE. LTD.", "Address": "Blk 1024 SEMBAWANG ROAD" }, "geometry": { "type": "Point", "coordinates": [ 103.832526372150426, 1.453436933569423 ] } },
{ "type": "Feature", "properties": { "Name": "LABIBA ENTERPRISE PTE. LTD.", "Address": "Blk 249 JALAN KAYU" }, "geometry": { "type": "Point", "coordinates": [ 103.872851581636269, 1.396574155587702 ] } },
{ "type": "Feature", "properties": { "Name": "COLD STORAGE SINGAPORE (1983) PTE LTD", "Address": "Blk 266 COMPASSVALE BOW" }, "geometry": { "type": "Point", "coordinates": [ 103.897031078180518, 1.381997031350526 ] } },
{ "type": "Feature", "properties": { "Name": "SHAFEN SUPERMARKET & TRADING (S) PTE. LTD.", "Address": "Blk 18 TOH GUAN ROAD EAST" }, "geometry": { "type": "Point", "coordinates": [ 103.751807387864673, 1.336417980553376 ] } },
{ "type": "Feature", "properties": { "Name": "YS LOGISTICS (S) PTE. LTD.", "Address": "Blk 15 JALAN TEPONG" }, "geometry": { "type": "Point", "coordinates": [ 103.722316838637994, 1.308593461458159 ] } },
{ "type": "Feature", "properties": { "Name": "MALAR MARKETING PTE. LTD.", "Address": "Blk 69 TUAS SOUTH AVENUE 1" }, "geometry": { "type": "Point", "coordinates": [ 103.627436995080998, 1.313358096773965 ] } },
{ "type": "Feature", "properties": { "Name": "SADIA SUPERMARKET & TRADING (S) PTE. LTD.", "Address": "Blk 14 TECH PARK CRESCENT" }, "geometry": { "type": "Point", "coordinates": [ 103.63019001720815, 1.310694285341005 ] } },
{ "type": "Feature", "properties": { "Name": "GOWRI'S GLOBAL MARKETING PTE. LTD.", "Address": "Blk 555 UPPER JURONG ROAD" }, "geometry": { "type": "Point", "coordinates": [ 103.677129986960779, 1.328886005532798 ] } },
{ "type": "Feature", "properties": { "Name": "KAVI TRADERS PTE. LTD.", "Address": "Blk 69R TUAS SOUTH AVENUE 1" }, "geometry": { "type": "Point", "coordinates": [ 103.627916988490512, 1.313322351038656 ] } },
{ "type": "Feature", "properties": { "Name": "BISMILLAH MINIMART PTE. LTD.", "Address": "Blk 32 MANDAI ESTATE" }, "geometry": { "type": "Point", "coordinates": [ 103.758094978445769, 1.407543240608688 ] } },
{ "type": "Feature", "properties": { "Name": "FORTUNE SUPERMARKET PTE. LTD.", "Address": "Blk 463 SEMBAWANG DRIVE" }, "geometry": { "type": "Point", "coordinates": [ 103.814540291548113, 1.455512082764739 ] } },
{ "type": "Feature", "properties": { "Name": "COLD STORAGE SINGAPORE (1983) PTE LTD", "Address": "Blk 406A SEMBAWANG DRIVE" }, "geometry": { "type": "Point", "coordinates": [ 103.817249280953149, 1.452736233950709 ] } },
{ "type": "Feature", "properties": { "Name": "PRIME SUPERMARKET LIMITED", "Address": "Blk 108 PUNGGOL FIELD" }, "geometry": { "type": "Point", "coordinates": [ 103.908850766913105, 1.396526176221595 ] } },
{ "type": "Feature", "properties": { "Name": "U STARS SUPERMARKET PTE. LTD.", "Address": "Blk 261 PUNGGOL WAY" }, "geometry": { "type": "Point", "coordinates": [ 103.896823897363419, 1.405413535938407 ] } },
{ "type": "Feature", "properties": { "Name": "HAO MART PTE. LTD.", "Address": "Blk 205 PETIR ROAD" }, "geometry": { "type": "Point", "coordinates": [ 103.773924087036008, 1.373430252899735 ] } },
{ "type": "Feature", "properties": { "Name": "PRIME SUPERMARKET (1996) PTE LTD", "Address": "Blk 761 YISHUN STREET 72" }, "geometry": { "type": "Point", "coordinates": [ 103.833259044079355, 1.425398420854532 ] } },
{ "type": "Feature", "properties": { "Name": "SHENG SIONG SUPERMARKET PTE LTD", "Address": "Blk 506 TAMPINES CENTRAL 1" }, "geometry": { "type": "Point", "coordinates": [ 103.945912189650969, 1.355902185478318 ] } },
{ "type": "Feature", "properties": { "Name": "COLD STORAGE SINGAPORE (1983) PTE LTD", "Address": "Blk 776 PASIR RIS STREET 71" }, "geometry": { "type": "Point", "coordinates": [ 103.937088181625569, 1.374549286718266 ] } },
{ "type": "Feature", "properties": { "Name": "COLD STORAGE SINGAPORE (1983) PTE LTD", "Address": "Blk 418 YISHUN AVENUE 11" }, "geometry": { "type": "Point", "coordinates": [ 103.847249793128697, 1.424899318024534 ] } },
{ "type": "Feature", "properties": { "Name": "PRIME SUPERMARKET LIMITED", "Address": "Blk 25A CHAI CHEE ROAD" }, "geometry": { "type": "Point", "coordinates": [ 103.924149642485517, 1.323289601729608 ] } },
{ "type": "Feature", "properties": { "Name": "SHENG SIONG SUPERMARKET PTE LTD", "Address": "Blk 539A BEDOK NORTH STREET 3" }, "geometry": { "type": "Point", "coordinates": [ 103.925500600050583, 1.332402301799918 ] } },
{ "type": "Feature", "properties": { "Name": "HAO MART PTE. LTD.", "Address": "Blk 69 BEDOK SOUTH AVENUE 3" }, "geometry": { "type": "Point", "coordinates": [ 103.943632362170192, 1.319350272804708 ] } },
{ "type": "Feature", "properties": { "Name": "PRIME SUPERMARKET (1996) PTE LTD", "Address": "Blk 159A HOUGANG STREET 11" }, "geometry": { "type": "Point", "coordinates": [ 103.879314599055675, 1.352090598857208 ] } },
{ "type": "Feature", "properties": { "Name": "PRIME SUPERMARKET LIMITED", "Address": "Blk 263 COMPASSVALE STREET" }, "geometry": { "type": "Point", "coordinates": [ 103.896042269735901, 1.394848155933876 ] } },
{ "type": "Feature", "properties": { "Name": "COLD STORAGE SINGAPORE (1983) PTE LTD", "Address": "Blk 161 ANG MO KIO AVENUE 4" }, "geometry": { "type": "Point", "coordinates": [ 103.839489194951597, 1.374239506746025 ] } },
{ "type": "Feature", "properties": { "Name": "COLD STORAGE SINGAPORE (1983) PTE LTD", "Address": "Blk 2 JALAN LOKAM" }, "geometry": { "type": "Point", "coordinates": [ 103.882695852671418, 1.345607713699606 ] } },
{ "type": "Feature", "properties": { "Name": "D-RON INVESTMENTS PTE. LTD.", "Address": "Blk 2 SELETAR NORTH LINK" }, "geometry": { "type": "Point", "coordinates": [ 103.896018766280577, 1.416907800812178 ] } },
{ "type": "Feature", "properties": { "Name": "AJMAL SUPER MART PTE. LTD.", "Address": "Blk 70 TUAS SOUTH AVENUE 1" }, "geometry": { "type": "Point", "coordinates": [ 103.625764663230669, 1.313964520023133 ] } },
{ "type": "Feature", "properties": { "Name": "COLD STORAGE SINGAPORE (1983) PTE LTD", "Address": "Blk 1 CLAYMORE DRIVE" }, "geometry": { "type": "Point", "coordinates": [ 103.829352202760774, 1.307562372632586 ] } },
{ "type": "Feature", "properties": { "Name": "COLD STORAGE SINGAPORE (1983) PTE LTD", "Address": "Blk 36A DUNEARN ROAD" }, "geometry": { "type": "Point", "coordinates": [ 103.837814975689597, 1.31617742511381 ] } },
{ "type": "Feature", "properties": { "Name": "COLD STORAGE SINGAPORE (1983) PTE LTD", "Address": "Blk 2 BAYFRONT AVENUE" }, "geometry": { "type": "Point", "coordinates": [ 103.858505749338434, 1.283558725408741 ] } },
{ "type": "Feature", "properties": { "Name": "NG LIAN TEE", "Address": "Blk 7 GREENDALE AVENUE" }, "geometry": { "type": "Point", "coordinates": [ 103.807033804929787, 1.33166477553363 ] } },
{ "type": "Feature", "properties": { "Name": "TAN PAK NANG", "Address": "Blk 387 UPPER ALJUNIED ROAD" }, "geometry": { "type": "Point", "coordinates": [ 103.87884190314432, 1.333123239896416 ] } },
{ "type": "Feature", "properties": { "Name": "HAO MART PTE. LTD.", "Address": "Blk 32 LORONG 11 GEYLANG" }, "geometry": { "type": "Point", "coordinates": [ 103.877004750674274, 1.313469039060128 ] } },
{ "type": "Feature", "properties": { "Name": "PRB TRADING PTE. LTD.", "Address": "Blk 230 GEYLANG ROAD" }, "geometry": { "type": "Point", "coordinates": [ 103.877389270672978, 1.31208877136193 ] } },
{ "type": "Feature", "properties": { "Name": "I-TEC SUPERMART PTE LTD", "Address": "Blk 498\/500 GEYLANG ROAD" }, "geometry": { "type": "Point", "coordinates": [ 103.885153154007526, 1.313288615462464 ] } },
{ "type": "Feature", "properties": { "Name": "YEO HOCK HENG", "Address": "Blk 5 ALJUNIED ROAD" }, "geometry": { "type": "Point", "coordinates": [ 103.881877796975132, 1.313576054270186 ] } },
{ "type": "Feature", "properties": { "Name": "AZ SUPERMART PTE. LTD.", "Address": "Blk 21 KAKI BUKIT AVENUE 3" }, "geometry": { "type": "Point", "coordinates": [ 103.909946665206576, 1.338096739137764 ] } },
{ "type": "Feature", "properties": { "Name": "FOODIE MARKET PLACE PTE. LTD.", "Address": "Blk 313 TANJONG KATONG ROAD" }, "geometry": { "type": "Point", "coordinates": [ 103.896149642739914, 1.306086367972731 ] } },
{ "type": "Feature", "properties": { "Name": "ZAC MEAT & POULTRY PTE LTD", "Address": "Blk 1B FIGARO STREET" }, "geometry": { "type": "Point", "coordinates": [ 103.925857026336132, 1.315749332696788 ] } }
]
}
